"Organization","Address","County","Sector","Type","lon","lat","county_name","lat_c","long","search"
"3G Water Supply","504 Willow St Buchan Dam TX","Llano","Agriculture","N/A",-98.467035,30.7977268,"Llano County,TX",30.6663312,-98.6970374,"Agriculture"
"439 WSC","6202 Sparta Rd Belton TX","Bell","Agriculture","WSC",-97.518506,31.1028669,"Bell County,TX",31.0081659,-97.4314413,"Agriculture"
"A&P WSC","PO Box 322 Carthage TX","Panola","Rural","WSC",-94.33742,32.1573841,"Panola County,TX",32.1367712,-94.3130073,"Rural"
"Ables Springs Special Utility District","30100 FM 429, Terrell, TX 75161","Kaufman","Policy","SUD",-96.275257,32.7359626,"Kaufman County,TX",32.601641,-96.3375126,"Policy"
"Acton MUD","6420 Lusk Branch Ct Granbury TX","Hood","Agriculture","MUD",-97.671831,32.4279671,"Hood County,TX",32.4107555,-97.828282,"Agriculture"
"Afton Grove WSC","PO Box 245 New Summerfield TX","Cherokee","Flood","WSC",-95.093832,31.9807226,"Cherokee County,TX",31.8390826,-95.1791849,"Flood"
"Agua SUD","PO Box 4379 Mission TX","Hidalgo","Groundwater","SUD",-98.325293,26.2159066,"Hidalgo County,TX",26.3530256,-98.216445,"Groundwater"
"Alto Rural WSC","PO Box 616 Alto TX","Cherokee","Groundwater","WSC",-95.072718,31.6504546,"Cherokee County,TX",31.8390826,-95.1791849,"Groundwater"
"Ames WSC","451 Dotto Liberty TX","Liberty","Groundwater","WSC",-94.750084,30.0566415,"Liberty County,TX",30.0856736,-94.7856262,"Groundwater"
"Anderson Co Cedar Creek WS","3350 W SH 294 Elkhart TX","Anderson","Flood","WS",-95.645553,31.6382677,"Anderson County,TX",31.7819242,-95.6258199,"Flood"
"Angeli Neches River Authority","2901 North John Redditt Drive Lufkin TX","Angeli","Policy","RA",-94.759587,31.364249,"Angeli County,TX",30.034134,-95.73678,"Policy"
"Angeli WSC","5978 FM 841 Lufkin TX","Angeli","Flood","WSC",-94.656081,31.315983,"Angeli County,TX",30.034134,-95.73678,"Flood"
"Angus WSC","212 FM 739 Corsica TX","Navarro","Agriculture","WSC",-96.432616,32.0091148,"Navarro County,TX",32.0279525,-96.4985456,"Agriculture"
"Appleby WSC","202 Deen St cogdoches TX","Nacogdoches","Policy","WSC",-94.60929,31.7183694,"Nacogdoches County,TX",31.5970503,-94.5927451,"Policy"
"Aqua WSC","415 Old Austin Hwy / PO Drawer P Bastrop TX","Bastrop","Rural","WSC",-97.329373,30.1095892,"Bastrop County,TX",30.0541116,-97.3887764,"Rural"
"Aquilla WSC","PO Box 159 Aquilla TX","Hill","Groundwater","WSC",-97.219136,31.8508845,"Hill County,TX",31.9595085,-97.0881654,"Groundwater"
"Aquilla WSD","PO Box 959 Hillsboro TX","Hill","Flood","WSD",-97.130006,32.0109886,"Hill County,TX",31.9595085,-97.0881654,"Flood"
"Argyle WSC","PO Box 249 Argyle TX","Denton","Policy","WSC",-97.183348,33.1212321,"Denton County,TX",33.1838787,-97.1413417,"Policy"
"Arledge Ridge WSC","PO Box 233 Bailey TX","Fannin","Agriculture","WSC",-96.165719,33.4329612,"Fannin County,TX",33.5372542,-96.0902822,"Agriculture"
"Armstrong WSC","PO Box 155 Holland TX","Bell","Policy","WSC",-97.40167,30.8782423,"Bell County,TX",31.0081659,-97.4314413,"Policy"
"Arroyo Bravo WSC","PO Box 590517 Houston TX","Comal","Agriculture","WSC",-95.52741,29.8596346,"Comal County,TX",29.7979704,-98.2690787,"Agriculture"
"Atascosa Rural WSC","PO Box 9 Atascosa TX","Bexar","Flood","WSC",-98.734803,29.2648341,"Bexar County,TX",29.4263987,-98.5104781,"Flood"
"Austin County WSC","PO Box 550 Bellville TX","Austin","Rural","WSC",-96.257186,29.9502253,"Austin County,TX",29.8916488,-96.2443467,"Rural"
"Avalon Point Water Services, LLC","2637 West 45th Street Austin TX","Bandera","Policy","Company",-97.751962,30.3199582,"Bandera County,TX",29.7643475,-99.234526,"Policy"
"Avalon Water Supply & Sewer Service Corp.","PO Box 70 Avalon TX","Ellis","Energy","Company",-96.791049,32.20501,"Ellis County,TX",32.3347829,-96.7920233,"Energy"
"Axtell WSC","PO Box 180 Axtell TX","McLennan","Flood","WSC",-96.972211,31.6568369,"McLennan County,TX",31.5487691,-97.2189254,"Flood"
"B&B WSC","1501 N 45th St Corsica TX","Navarro","Flood","WSC",-96.515236,32.0806021,"Navarro County,TX",32.0279525,-96.4985456,"Flood"
"Baffin Bay WSC","708 S FM 1546 Riviera TX","Kleberg","Policy","WSC",-97.814889,27.2986493,"Kleberg County,TX",27.3983129,-97.7485096,"Policy"
"Bandera County FWSD #1","220 Water View Dr Lakehills TX","Bandera","Energy","FWSD",-98.923284,29.5738309,"Bandera County,TX",29.7643475,-99.234526,"Energy"
"Bandera River Ranch WSC","161 Broken Spur Bandera TX","Bandera","Rural","WSC",-98.997365,29.7262425,"Bandera County,TX",29.7643475,-99.234526,"Rural"
"Bartley Woods WSC","PO Box 705 Bonham TX","Fannin","Groundwater","WSC",-96.178311,33.5773275,"Fannin County,TX",33.5372542,-96.0902822,"Groundwater"
"Barton Springs EACD","1124 Regal Row Ste D Austin TX","Travis","Flood","EACD",-97.831484,30.1473539,"Travis County,TX",30.2878569,-97.7561392,"Flood"
"Barton WSC","PO Box 272 Gordon TX","Palo Pinto","Policy","WSC",-98.369328,32.5473728,"Palo Pinto County,TX",32.7215726,-98.2814881,"Policy"
"Bastrop County WCID 2","PO Box 708 Bastrop TX","Bastrop","Policy","WCID",-97.31527,30.1104947,"Bastrop County,TX",30.0541116,-97.3887764,"Policy"
"Batesville WSC","PO Box 187 Batesville TX","Zavala","Agriculture","WSC",-99.617315,28.9616796,"Zavala County,TX",28.8366612,-99.767631,"Agriculture"
"Baylor County SUD","PO Box 426 Seymour TX","Baylor","Flood","SUD",-99.260353,33.5942608,"Baylor County,TX",33.574962,-99.2000611,"Flood"
"BCY WSC","PO Box 7 Tennessee Colony TX","Anderson","Agriculture","WSC",-95.840891,31.834634,"Anderson County,TX",31.7819242,-95.6258199,"Agriculture"
"Bear Creek SUD","PO Box 188 Lavon TX","Collin","Energy","SUD",-96.434152,33.0276193,"Collin County,TX",33.1609629,-96.6060984,"Energy"
"Becker Jiba SUD","15269 FM 2860 Kaufman TX","Kaufman","Policy","SUD",-96.216754,32.4920347,"Kaufman County,TX",32.601641,-96.3375126,"Policy"
"Bell Co WCID #5","PO Drawer 150 Cameron TX","Bell","Policy","WSC",-96.97693,30.8532454,"Bell County,TX",31.0081659,-97.4314413,"Policy"
"Bell Co WCID 1","60 Richland Drive Belton TX","Bell","Agriculture","WCID",-97.46138,31.1330128,"Bell County,TX",31.0081659,-97.4314413,"Agriculture"
"Ben Franklin WSC","PO Box 497 Ben Franklin TX","Delta","Agriculture","WSC",-95.771279,33.480513,"Delta County,TX",33.3926893,-95.6749486,"Agriculture"
"Ben Wheeler WSC","PO Box 104 Ben Wheeler TX","Van Zandt","Agriculture","WSC",-95.703852,32.4459745,"Van Zandt County,TX",32.5375642,-95.8292165,"Agriculture"
"Benton City WSC","980 FM 3175 Lytle TX","Medi","Groundwater","WSC",-98.793499,29.2075753,"Medi County,TX",35.1926596,-101.9145937,"Groundwater"
"Bethany SUD","133 S County Road 810 Alvarado TX","Johnson","Policy","SUD",-97.261656,32.4067805,"Johnson County,TX",32.3766071,-97.3568623,"Policy"
"Bethel-Ash WSC","PO Box 1385 Athens TX","Henderson","Groundwater","WSC",-95.855521,32.2048735,"Henderson County,TX",32.182598,-95.7893178,"Groundwater"
"Bethesda WSC","PO Box 130 Burleson TX","Johnson","Agriculture","WSC",-97.320849,32.5420821,"Johnson County,TX",32.3766071,-97.3568623,"Agriculture"
"Beulah WSC","12182 FM 58, Ste 200 Lufkin TX","Angeli","Rural","WSC",-94.669016,31.1852174,"Angeli County,TX",30.034134,-95.73678,"Rural"
"BHP WSC","PO Box 370 Royse City TX","Hunt","Groundwater","WSC",-96.332482,32.9751204,"Hunt County,TX",33.1161567,-96.0808922,"Groundwater"
"Bi-County WSC","PO Box 848 Pittsburg TX","Camp","Flood","WSC",-94.966147,32.9939955,"Camp County,TX",32.9723128,-94.9852858,"Flood"
"Big Woods Spring Water Company","PO Box 557 Cumby TX","Wood","Flood","N/A",-95.839408,33.1373366,"Wood County,TX",32.7577475,-95.3812941,"Flood"
"Birome WSC","RR 1 Box 73 Mount Calm TX","Hill","Policy","WSC",-96.879161,31.7562739,"Hill County,TX",31.9595085,-97.0881654,"Policy"
"Bistone Municipal WSD","PO Box 145 Mexia TX","Limestone","Energy","WSD",-96.482203,31.6798895,"Limestone County,TX",31.5261854,-96.580617,"Energy"
"Bitter Creek WSC South","2803 E Broadway Ave Sweetwater TX","Nolan","Energy","WSC",-100.37455,32.4839793,"Nolan County,TX",32.2719306,-100.3987748,"Energy"
"Black Rock WSC","PO Box 430 Aubrey TX","Denton","Policy","WSC",-96.986118,33.3042834,"Denton County,TX",33.1838787,-97.1413417,"Policy"
"Blackland WSC","PO Box 215 Fate TX","Rockwall","Agriculture","WSC",-96.390448,32.9431648,"Rockwall County,TX",32.8923464,-96.4066987,"Agriculture"
"Blair WSC","PO Box 386 Merkel TX","Taylor","Policy","WSC",-100.0109,32.4723013,"Taylor County,TX",32.2793121,-99.8812612,"Policy"
"Blessing Utility System","1102 Martin Ave Round Rock TX","Williamson","Energy","System",-97.692353,30.4862152,"Williamson County,TX",30.6580927,-97.6041649,"Energy"
"Bloomburg WSC","PO Box 262 Bloomburg TX","Cass","Groundwater","WSC",-94.059757,33.1343282,"Cass County,TX",33.0560857,-94.3510366,"Groundwater"
"Bluff Dale WSC","PO Box 232 Bluff Dale TX","Erath","Policy","WSC",-98.021426,32.3509718,"Erath County,TX",32.1954856,-98.2213499,"Policy"
"Bois D' Arc MUD","14101 E FM 1396 HONEY GROVE TX","Fannin","Groundwater","MUD",-95.909968,33.5834377,"Fannin County,TX",33.5372542,-96.0902822,"Groundwater"
"Bold Springs WSC","PO Box 427 West TX","McLennan","Flood","WSC",-97.090955,31.8023057,"McLennan County,TX",31.5487691,-97.2189254,"Flood"
"Bolivar Peninsula SUD","PO Box 1398 Crystal Beach TX","Galveston","Rural","SUD",-94.639638,29.457177,"Galveston County,TX",29.3872254,-94.992736,"Rural"
"Bolivar WSC","PO Box 1789 / 4151 FM 455 West Sanger TX","Denton","Flood","WSC",-97.136417,33.3715301,"Denton County,TX",33.1838787,-97.1413417,"Flood"
"Bourland Estates WSC","101 Constellation Drive Cresson TX","Parker","Groundwater","WSC",-97.595843,32.5833683,"Parker County,TX",32.7599475,-97.7935767,"Groundwater"
"Brandon-Irene WSC","PO Box 87 Brandon TX","Hill","Flood","WSC",-96.964192,32.0455747,"Hill County,TX",31.9595085,-97.0881654,"Flood"
"Brashear WSC","PO Box 36 Brashear TX","Hopkins","Energy","WSC",-95.732994,33.1225513,"Hopkins County,TX",33.1368252,-95.5656578,"Energy"
"Bright Star-Salem SUD","238 N Osborn Alba TX","Wood","Policy","SUD",-95.629654,32.7947524,"Wood County,TX",32.7577475,-95.3812941,"Policy"
"Brinker WSC","4534 IH 30 East Sulphur Springs TX","Hopkins","Energy","WSC",-92.269688,34.7170594,"Hopkins County,TX",33.1368252,-95.5656578,"Energy"
"Brookshire MWD","4004 6th Street Brookshire TX","Waller","Policy","MWD",-95.95282,29.784429,"Waller County,TX",29.9443902,-95.9955885,"Policy"
"Brushy Creek WSC","PO Box 168 Montalba TX","Anderson","Policy","WSC",-95.733575,31.8756797,"Anderson County,TX",31.7819242,-95.6258199,"Policy"
"Bue Vista-Bethel SUD","312 S Oak Branch Rd Waxahachie TX","Ellis","Agriculture","SUD",-96.956079,32.3255753,"Ellis County,TX",32.3347829,-96.7920233,"Agriculture"
"Burkeville WSC","PO Box 220 Burkeville TX","Newton","Agriculture","WSC",-93.667954,30.9999178,"Newton County,TX",30.8118989,-93.740504,"Agriculture"
"Burleson Co MUD #1","200 Shadow Oak Ln Somerville TX","Burleson","Flood","MUD",-96.63784,30.3155867,"Burleson County,TX",30.4764878,-96.6353488,"Flood"
"Burns Red Bank WSC","PO Box 907 Hooks TX","Bowie","Policy","WSC",-94.288531,33.4662328,"Bowie County,TX",33.4198886,-94.4479626,"Policy"
"Bushland WSC","PO Box 174 Bushland TX","Potter","Energy","WSC",-102.06359,35.1898908,"Potter County,TX",35.3683354,-101.8776577,"Energy"
"Butler WSC","1350 Hwy 84 East Oakwood TX","Freestone","Flood","WSC",-95.945267,31.6679907,"Freestone County,TX",31.6924428,-96.1629601,"Flood"
"Caddo Basin SUD","156 County Road 1118 Greenville TX","Hunt","Agriculture","SUD",-96.24585,33.1496831,"Hunt County,TX",33.1161567,-96.0808922,"Agriculture"
"Caddo Lake WSC","PO Box 136 Karck TX","Harrison","Groundwater","WSC",-94.169415,32.6668865,"Harrison County,TX",32.5233959,-94.3982158,"Groundwater"
"Calhoun Port Authority","P.O. Box 397 Point Comfort","Calhoun","Policy","N/A",-96.555956,28.6767176,"Calhoun County,TX",28.5031572,-96.6736551,"Policy"
"Callahan County WSC","218 N Access Rd Clyde TX","Callahan","Groundwater","WSC",-99.498834,32.4132302,"Callahan County,TX",32.2810409,-99.3612437,"Groundwater"
"Camilla Coves Lot Owners Association","P.O. Box 1001 Coldspring TX","San Jacinto","Groundwater","N/A",-95.129318,30.592606,"San Jacinto County,TX",30.5083577,-95.1902362,"Groundwater"
"Camilla WSC","PO Box 187 Coldspring TX","San Jacinto","Energy","WSC",-95.138053,30.5816371,"San Jacinto County,TX",30.5083577,-95.1902362,"Energy"
"Camp Balcones Springs","104 Balcones Springs Dr Marble Falls TX","Burnet","Policy","N/A",-98.117269,30.5570976,"Burnet County,TX",30.7763939,-98.1700016,"Policy"
"Campbell WSC","PO Box 94 Campbell TX","Hunt","Groundwater","WSC",-95.958003,33.1483986,"Hunt County,TX",33.1161567,-96.0808922,"Groundwater"
"Caney Creek MUD","PO BOX 4108 Sargent TX","Matagorda","Flood","MUD",-95.664676,28.8352564,"Matagorda County,TX",28.8879823,-96.0035095,"Flood"
"Caney Creek Utilities","16501 Hunters Trl Montgomery TX","Montgomery","Policy","Utilities",-95.61159,30.4455164,"Montgomery County,TX",30.301949,-95.5065944,"Policy"
"Canyon Lake WSC","Box 1742 Canyon Lake","Comal","Flood","WSC",-98.262513,29.8752177,"Comal County,TX",29.7979704,-98.2690787,"Flood"
"Canyon Regiol Water Authority","850 Lakeside Pass New Braunfels TX","Guadalupe","Flood","Water Authority",-98.066339,29.6538976,"Guadalupe County,TX",29.6480061,-97.8279576,"Flood"
"Canyon Ridge Utilities","506 South Lipscomb Amarillo TX","Potter","Rural","N/A",-101.85264,35.2104911,"Potter County,TX",35.3683354,-101.8776577,"Rural"
"Cape Carancahua WSC","416 Carancahua Blvd Palacios TX","Jackson","Agriculture","WSC",-96.420114,28.7276698,"Jackson County,TX",28.9224028,-96.55561,"Agriculture"
"Carlsbad Fresh Water Dist. #1","P.O. Box 24 Carlsbad TX","Tom Green","Rural","Water District",-100.64573,31.6113279,"Tom Green County,TX",31.3782559,-100.4133839,"Rural"
"Caro WSC","3947 State Hwy 204 cogdoches TX","Nacogdoches","Policy","WSC",-94.737828,31.7694676,"Nacogdoches County,TX",31.5970503,-94.5927451,"Policy"
"Carrizo Hill WSC","PO Box 85 Carrizo Springs TX","Dimmit","Groundwater","WSC",-99.859252,28.5240348,"Dimmit County,TX",28.3821949,-99.7178226,"Groundwater"
"Carroll WSC","PO Box 428 Van TX","Van Zandt","Energy","WSC",-95.637184,32.5248605,"Van Zandt County,TX",32.5375642,-95.8292165,"Energy"
"Cash SUD","PO Box 8129 Greenville TX","Hunt","Agriculture","SUD",-96.110807,33.1384488,"Hunt County,TX",33.1161567,-96.0808922,"Agriculture"
"Cedar Crest Colony WSC","PO Box 1707 Whitney TX","Hill","Groundwater","WSC",-97.321401,31.951823,"Hill County,TX",31.9595085,-97.0881654,"Groundwater"
"Cedar Oak Mesa WSC","PO Box 2635 Wimberley TX","Hays","Groundwater","WSC",-98.09862,29.9974362,"Hays County,TX",30.0447901,-98.0393127,"Groundwater"
"Cego-Durango WSC","PO Box 457 Chilton TX","Falls","Groundwater","WSC",-97.065006,31.2803897,"Falls County,TX",31.2320941,-96.9262126,"Groundwater"
"Central Bosque WSC","PO Box 344 Mc Gregor TX","McLennan","Agriculture","WSC",-97.409179,31.4440557,"McLennan County,TX",31.5487691,-97.2189254,"Agriculture"
"Central Bowie County WSC","PO Box 306 New Boston TX","Bowie","Agriculture","WSC",-94.417402,33.4606022,"Bowie County,TX",33.4198886,-94.4479626,"Agriculture"
"Central Texas WSC","PO Box 2393 Harker Heights TX","Bell","Energy","WSC",-97.659738,31.0835102,"Bell County,TX",31.0081659,-97.4314413,"Energy"
"Central Washington County WSC","2800 Spanish Oaks Brenham TX","Washington","Groundwater","WSC",-96.443996,30.1632242,"Washington County,TX",30.2226352,-96.3936114,"Groundwater"
"Central WCID","5307 N Us Hwy 69 Pollok TX","Angelina","Rural","WCID",-94.793576,31.4009624,"Angelina County,TX",31.2544545,-94.6181177,"Rural"
"Chalk Bluff WSC","6511 Gholson Rd Waco TX","McLennan","Agriculture","WSC",-97.144898,31.6518128,"McLennan County,TX",31.5487691,-97.2189254,"Agriculture"
"Chalk Hill SUD","16076 FM 1716 E Henderson TX","Rusk","Agriculture","SUD",-94.703531,32.2916138,"Rusk County,TX",31.7960064,-95.1502214,"Agriculture"
"Chappell Hill WSC","26550 Ranch Road 12 Dripping Springs TX","Washington","Groundwater","WSC",-98.084439,30.1779416,"Washington County,TX",30.2226352,-96.3936114,"Groundwater"
"Chateau Woods MUD","10224 Fairview Dr Conroe TX","Montgomery","Agriculture","MUD",-95.420591,30.167295,"Montgomery County,TX",30.301949,-95.5065944,"Agriculture"
"Chatfield WSC","PO Box 158 Powell TX","Navarro","Agriculture","WSC",-96.327873,32.1177202,"Navarro County,TX",32.0279525,-96.4985456,"Agriculture"
"Chatt WSC","140 HCR 2305 Abbott TX","Hill","Rural","WSC",-97.073959,31.8827464,"Hill County,TX",31.9595085,-97.0881654,"Rural"
"Chester WSC","PO Box 87 Chester TX","Tyler","Rural","WSC",-94.600067,30.9269234,"Tyler County,TX",30.7563939,-94.3984613,"Rural"
"Chi Spring Community WSC","PO Box 385 Chi Spring TX","McLennan","Flood","WSC",-97.307119,31.6457098,"McLennan County,TX",31.5487691,-97.2189254,"Flood"
"Childress Creek WSC","255 County Road 3405 Clifton TX","Bosque","Agriculture","WSC",-97.513545,31.7956018,"Bosque County,TX",31.8778358,-97.6561014,"Agriculture"
"Cimarron Park Water Company","406 Edgewood Dr Buda TX","Hays","Flood","Company",-97.861936,30.1174936,"Hays County,TX",30.0447901,-98.0393127,"Flood"
"City of Alba","PO Box 197 Alba TX","Wood","Groundwater","N/A",-95.637134,32.793349,"Wood County,TX",32.7577475,-95.3812941,"Groundwater"
"City of Balmorhea","PO Box 323 Balmorhea TX","Reeves","Groundwater","N/A",-103.74463,30.9843123,"Reeves County,TX",31.232003,-103.6583657,"Groundwater"
"City of Beckville","PO Box 97 Beckville TX","Panola","Agriculture","N/A",-94.455478,32.2429366,"Panola County,TX",32.1367712,-94.3130073,"Agriculture"
"City of Blue Mound","1817 Fagan Dr. Blue Mound TX","Tarrant","Energy","N/A",-97.333921,32.8580958,"Tarrant County,TX",32.7513658,-97.335696,"Energy"
"City of Booker","PO Box M Booker TX","Lipscomb","Groundwater","N/A",-100.53777,36.453623,"Lipscomb County,TX",36.2695629,-100.2711772,"Groundwater"
"City of Bronte","PO Box 370 Bronte TX","Coke","Energy","N/A",-100.29176,31.8873671,"Coke County,TX",31.8695226,-100.5474369,"Energy"
"City of Brownsboro","11351 Willow St Brownsboro TX","Henderson","Agriculture","N/A",-95.615262,32.302358,"Henderson County,TX",32.182598,-95.7893178,"Agriculture"
"City of Camp Wood","PO Box 130 Camp Wood TX","Real","Rural","N/A",-100.01291,29.6700128,"Real County,TX",29.7949383,-99.8280905,"Rural"
"City of Campbell - WW","PO Box 27 Campbell TX","Hunt","Energy","WW",-95.951356,33.1481702,"Hunt County,TX",33.1161567,-96.0808922,"Energy"
"City of Castroville","703 Paris St Castroville TX","Medi","Rural","N/A",-98.880424,29.3547897,"Medi County,TX",35.1926596,-101.9145937,"Rural"
"City of Centerville","PO Box 279 Centerville TX","Leon","Energy","N/A",-95.978292,31.2579584,"Leon County,TX",31.2715127,-95.9953382,"Energy"
"City of Cottonwood Shores","3808 Cottonwood Dr Cottonwood Shores TX","Burnet","Groundwater","N/A",-98.320693,30.5496716,"Burnet County,TX",30.7763939,-98.1700016,"Groundwater"
"City of Cresson","8901 E Hwy 377 Cresson TX","Hood","Rural","N/A",-97.625486,32.5221062,"Hood County,TX",32.4107555,-97.828282,"Rural"
"City of Cumby","PO Box 349 Cumby TX","Hopkins","Groundwater","N/A",-95.839408,33.1373366,"Hopkins County,TX",33.1368252,-95.5656578,"Groundwater"
"City of Cut and Shoot","PO Box 7364 Cut And Shoot TX","Montgomery","Agriculture","N/A",-95.357994,30.3332654,"Montgomery County,TX",30.301949,-95.5065944,"Agriculture"
"City of Devine","303 S Teel Dr Devine TX","Medi","Energy","N/A",-98.906901,29.1377334,"Medi County,TX",35.1926596,-101.9145937,"Energy"
"City of Dorchester","373 Main St Dorchester TX","Grayson","Groundwater","N/A",-96.689437,33.5303861,"Grayson County,TX",33.5636114,-96.6702111,"Groundwater"
"City of Earth","PO Box 10 Earth TX","Lamb","Rural","N/A",-102.41075,34.2331373,"Lamb County,TX",34.0321667,-102.3429233,"Rural"
"City of East Mountain","103 Municipal Drive Gilmer TX","Upshur","Flood","N/A",-94.857942,32.5921062,"Upshur County,TX",32.7263725,-94.9286251,"Flood"
"City of Eden","PO Box 915 Eden TX","Concho","Groundwater","N/A",-99.845628,31.216276,"Concho County,TX",31.3102947,-99.8507578,"Groundwater"
"City of Evant","Box 10 Evant TX","Coryell","Agriculture","N/A",-98.151978,31.4762719,"Coryell County,TX",31.3689333,-97.8184077,"Agriculture"
"City of Flatonia","PO Box 329 Flatonia TX","Fayette","Groundwater","N/A",-97.107353,29.6869266,"Fayette County,TX",29.8381635,-96.9559692,"Groundwater"
"City of Florence","PO Box 430 Florence TX","Williamson","Agriculture","N/A",-97.793627,30.8412954,"Williamson County,TX",30.6580927,-97.6041649,"Agriculture"
"City of Forsan","PO Box 714 Forsan TX","Howard","Policy","N/A",-101.36623,32.109848,"Howard County,TX",32.3047833,-101.4271085,"Policy"
"City of Frost","P.O. Box X Frost TX","Navarro","Agriculture","Frost",-96.80779,32.0813246,"Navarro County,TX",32.0279525,-96.4985456,"Agriculture"
"City of George West","406 Nueces George West TX","Live Oak","Policy","N/A",-98.115232,28.3308946,"Live Oak County,TX",28.2678746,-98.101923,"Policy"
"City of Goliad","P O Drawer 939 Goliad TX","Goliad","Policy","N/A",-97.388327,28.6683252,"Goliad County,TX",28.6467776,-97.4379552,"Policy"
"City of Goodrich","PO Box 277 Goodrich TX","Polk","Flood","N/A",-94.947263,30.6060537,"Polk County,TX",30.7642828,-94.8192175,"Flood"
"City of Gorman","PO Box 236 Gorman TX","Eastland","Groundwater","Gorman",-98.67272,32.2112446,"Eastland County,TX",32.2978594,-98.8630896,"Groundwater"
"City of Grandfalls","P.O. Box 327 Grandfalls TX","Ward","Policy","N/A",-102.85182,31.3393072,"Ward County,TX",31.5007583,-103.0781186,"Policy"
"City of Granger","PO Box 367 Granger TX","Williamson","Policy","N/A",-97.44278,30.7176929,"Williamson County,TX",30.6580927,-97.6041649,"Policy"
"City of Gregory","PO Box 297 Gregory TX","San Patricio","Groundwater","N/A",-97.292158,27.9235406,"San Patricio County,TX",28.0003594,-97.5020440853272,"Groundwater"
"City of Groveton","PO Box 37 Groveton TX","Trinity","Policy","N/A",-95.126675,31.0553605,"Trinity County,TX",31.0834452,-95.1219348,"Policy"
"City of Holland","PO Box 157 Holland TX","Bell","Policy","N/A",-97.40167,30.8782423,"Bell County,TX",31.0081659,-97.4314413,"Policy"
"City of Huxley","11798 FM 2694 Shelbyville TX","Shelby","Agriculture","N/A",-93.867291,31.7602713,"Shelby County,TX",31.7716364,-94.1301652,"Agriculture"
"City of Industry","PO Box 190 Industry TX","Austin","Rural","N/A",-96.502193,29.9724459,"Austin County,TX",29.8916488,-96.2443467,"Rural"
"City of Iredell","PO Box 147 Iredell TX","Bosque","Rural","N/A",-97.871644,31.9842959,"Bosque County,TX",31.8778358,-97.6561014,"Rural"
"City of Jayton","P.O. Box 46 Jayton TX","Kent","Agriculture","N/A",-100.57373,33.2481485,"Kent County,TX",33.1665316,-100.7846477,"Agriculture"
"City of Jewett","PO Box 189 Jewett TX","Leon","Agriculture","N/A",-96.144132,31.3615664,"Leon County,TX",31.2715127,-95.9953382,"Agriculture"
"City of Jourdanton","1604 Hwy 97 East, Ste A Jourdanton TX","Atascosa","Flood","N/A",-98.535497,28.9240427,"Atascosa County,TX",28.8554434,-98.5316314,"Flood"
"City of Kenrd","PO Box 115 Kenrd TX","Houston","Groundwater","N/A",-95.184667,31.3595701,"Houston County,TX",31.3378465,-95.390805,"Groundwater"
"City of Kirvin","PO Box 344 Kirvin TX","Freestone","Groundwater","N/A",-96.330254,31.7665548,"Freestone County,TX",31.6924428,-96.1629601,"Groundwater"
"City of La Vernia","102 E Chihuahua St La Vernia TX","Wilson","Rural","Vernia",-98.114871,29.3555136,"Wilson County,TX",29.1589961,-98.1251465,"Rural"
"City of Lindsay","PO Box 153 Lindsay TX","Cooke","Flood","N/A",-97.222793,33.635941,"Cooke County,TX",33.582486,-97.2055298,"Flood"
"City of Log Cabin","14387 Alamo Rd Log Cabin TX","Henderson","Rural","Cabin",-96.022532,32.2266539,"Henderson County,TX",32.182598,-95.7893178,"Rural"
"City of Malone Water System","214 N Pecan Street Malone TX","Hill","Policy","N/A",-96.894734,31.9177099,"Hill County,TX",31.9595085,-97.0881654,"Policy"
"City of Marietta","PO Box 247 Marietta TX","Cass","Flood","N/A",-94.542681,33.1737421,"Cass County,TX",33.0560857,-94.3510366,"Flood"
"City of Marion","PO Box 158 Marion TX","Guadalupe","Agriculture","N/A",-98.132719,29.5722277,"Guadalupe County,TX",29.6480061,-97.8279576,"Agriculture"
"City of McLean","220 N. Main McLean TX","Gray","Flood","N/A",-100.59948,35.2330645,"Gray County,TX",35.3711816,-100.7892236,"Flood"
"City of Megargel","PO Box 31 Megargel TX","Archer","Agriculture","N/A",-98.924511,33.4509353,"Archer County,TX",33.5816594,-98.7044869,"Agriculture"
"City of Merd","PO Box 145 Merd TX","Merd","Agriculture","N/A",-99.786459,30.9176736,"Merd County,TX",NA,NA,"Agriculture"
"City of Mount Calm","PO Box 85 Mount Calm TX","Hill","Energy","N/A",-96.879161,31.7562739,"Hill County,TX",31.9595085,-97.0881654,"Energy"
"City of Murchison","PO Box 33 Murchison TX","Henderson","Energy","N/A",-95.749686,32.2784819,"Henderson County,TX",32.182598,-95.7893178,"Energy"
"City of Omaha","PO Box 937 Omaha TX","Morris","Agriculture","N/A",-94.744096,33.180677,"Morris County,TX",33.0738633,-94.7392197,"Agriculture"
"City of Primera","22893 stuart place road primera TX","Cameron","Energy","N/A",-97.757586,26.2282674,"Cameron County,TX",26.1291189,-97.4134281,"Energy"
"City of Richland","103 W Main St / PO Box 179 Richland TX","Navarro","Energy","N/A",-96.429426,31.9268257,"Navarro County,TX",32.0279525,-96.4985456,"Energy"
"City of Riesel","PO Box 249 Riesel TX","McLennan","Policy","N/A",-96.923326,31.4748925,"McLennan County,TX",31.5487691,-97.2189254,"Policy"
"City of Rio Hondo","P.O. Box 389 Rio Hondo TX","Cameron","Policy","N/A",-97.581932,26.2353516,"Cameron County,TX",26.1291189,-97.4134281,"Policy"
"City of Rogers","2 W Mesquite / PO Box 250 Rogers TX","Bell","Flood","N/A",-97.227062,30.9319089,"Bell County,TX",31.0081659,-97.4314413,"Flood"
"City of Roxton","PO Box 176 Roxton TX","Lamar","Agriculture","N/A",-95.725795,33.5462168,"Lamar County,TX",33.6383552,-95.582343,"Agriculture"
"City of Savoy","PO Box 176 Savoy TX","Fannin","Rural","N/A",-96.366651,33.5992726,"Fannin County,TX",33.5372542,-96.0902822,"Rural"
"City of Seadrift","PO Box 159 Seadrift TX","Calhoun","Agriculture","N/A",-96.713502,28.4152726,"Calhoun County,TX",28.5031572,-96.6736551,"Agriculture"
"City of Shallowater","PO Box 246 Shallowater TX","Lubbock","Groundwater","N/A",-101.98573,33.6780865,"Lubbock County,TX",33.5831241,-101.818598,"Groundwater"
"City of Sunset Valley","3205 jones rd Sunset Valley TX","Travis","Policy","N/A",-97.810305,30.2280418,"Travis County,TX",30.2878569,-97.7561392,"Policy"
"City of talia","PO Box 270 talia TX","Medi","Flood","N/A",-98.862527,29.189684,"Medi County,TX",35.1926596,-101.9145937,"Flood"
"City of Tehuaca","PO Box 67 Tehuaca TX","Limestone","Groundwater","N/A",-96.546928,31.7412763,"Limestone County,TX",31.5261854,-96.580617,"Groundwater"
"City of Valentine","PO Box 6 Valentine TX","Jeff Davis","Flood","N/A",-104.50173,30.5892022,"Jeff Davis County,TX",30.7018281,-104.1501698,"Flood"
"City of Wells","PO Box 20 Wells TX","Cherokee","Policy","Wells",-94.939935,31.488513,"Cherokee County,TX",31.8390826,-95.1791849,"Policy"
"City of Whitewright","PO Box 966 Whitewright TX","Grayson","Agriculture","N/A",-96.392483,33.5128856,"Grayson County,TX",33.5636114,-96.6702111,"Agriculture"
"City of Wills Point","PO Box 505 Wills Point TX","Van Zandt","Rural","N/A",-96.008302,32.7092955,"Van Zandt County,TX",32.5375642,-95.8292165,"Rural"
"Clay Hill WSC","103 Private Road 936 Teague TX","Freestone","Policy","WSC",-96.229382,31.7033728,"Freestone County,TX",31.6924428,-96.1629601,"Policy"
"Clayton WSC","PO Box 3 Clayton TX","Panola","Flood","WSC",-94.475899,32.0979564,"Panola County,TX",32.1367712,-94.3130073,"Flood"
"Coke County WSC","10390 Hwy 159 West Robert Lee TX","Coke","Energy","WSC",-96.133439,30.0281776,"Coke County,TX",31.8695226,-100.5474369,"Energy"
"Coleman County SUD","214 Santa An Ave Coleman TX","Coleman","Flood","SUD",-99.416774,31.8120659,"Coleman County,TX",31.7766863,-99.4461098,"Flood"
"College Mound SUD","PO Box 2008 / 12731 FM 429 Terrell TX","Kaufman","Flood","SUD",-96.17424,32.6539344,"Kaufman County,TX",32.601641,-96.3375126,"Flood"
"Comanche County WSC","PO Box 282 De Leon TX","Comanche","Energy","WSC",-98.540135,32.1182927,"Comanche County,TX",31.9130171,-98.527388,"Energy"
"Combine WSC","PO Box 40 Crandall TX","Dallas","Agriculture","WSC",-96.455331,32.6275015,"Dallas County,TX",32.7620405,-96.7790069,"Agriculture"
"Combined Consumers SUD","PO Box 2829 / 10446 FM 751 Quinlan TX","Hunt","Agriculture","SUD",-96.073251,32.8707902,"Hunt County,TX",33.1161567,-96.0808922,"Agriculture"
"Community WSC","12190 Liberty School Rd Azle TX","Tarrant","Rural","WSC",-97.525845,32.9513568,"Tarrant County,TX",32.7513658,-97.335696,"Rural"
"Concan WSC","PO Box 185 Concan TX","Uvalde","Policy","WSC",-99.712554,29.4952315,"Uvalde County,TX",29.300357,-99.7733181,"Policy"
"Concord Robbins WSC","PO Box 35 Marquez TX","Leon","Agriculture","WSC",-96.253577,31.2393469,"Leon County,TX",31.2715127,-95.9953382,"Agriculture"
"Consolidated WSC","401 NE Loop 304 Crockett TX","Houston","Rural","WSC",-95.470021,31.3343356,"Houston County,TX",31.3378465,-95.390805,"Rural"
"Copeville SUD","PO Box 135 Copeville TX","Collin","Policy","SUD",-96.423267,33.080147,"Collin County,TX",33.1609629,-96.6060984,"Policy"
"Corbet WSC","1724 FM 2452 Corsica TX","Navarro","Flood","WSC",-96.537541,32.0069669,"Navarro County,TX",32.0279525,-96.4985456,"Flood"
"Corinth WSC","PO Box 299 Grand Saline TX","Van Zandt","Energy","WSC",-95.709407,32.6734636,"Van Zandt County,TX",32.5375642,-95.8292165,"Energy"
"Cornersville WSC","PO Box 127 Pickton TX","Hopkins","Energy","WSC",-95.391787,33.0302707,"Hopkins County,TX",33.1368252,-95.5656578,"Energy"
"Coryell City WSD","9440 FM 929 Gatesville TX","Coryell","Agriculture","WSD",-97.624103,31.5432366,"Coryell County,TX",31.3689333,-97.8184077,"Agriculture"
"Cottonwood Water Supply Corporation","PO Box 569 West TX","McLennan","Policy","Company",-97.090955,31.8023057,"McLennan County,TX",31.5487691,-97.2189254,"Policy"
"Country Club WSC","PO Box 970 Mabank TX","Kaufman","Rural","WSC",-96.100806,32.3665322,"Kaufman County,TX",32.601641,-96.3375126,"Rural"
"County Line SUD","8870 Camino Real Uhland TX","Hays","Policy","SUD",-97.799261,29.9430876,"Hays County,TX",30.0447901,-98.0393127,"Policy"
"Craft-Turney WSC","505 SE Loop 456 Jacksonville TX","Cherokee","Groundwater","WSC",-95.259933,31.9316902,"Cherokee County,TX",31.8390826,-95.1791849,"Groundwater"
"Creedmoor-Maha WSC","12100 Laws Rd Buda TX","Travis","Groundwater","WSC",-97.67908,30.0643114,"Travis County,TX",30.2878569,-97.7561392,"Groundwater"
"Creekwood Ranches WSC","471 CR 4510 Hondo TX","Medi","Energy","WSC",-95.566527,33.2212547,"Medi County,TX",35.1926596,-101.9145937,"Energy"
"Crescent Heights WSC","PO Box 375 Athens TX","Henderson","Policy","WSC",-95.855521,32.2048735,"Henderson County,TX",32.182598,-95.7893178,"Policy"
"Crockett County WCID #1","PO Box 117 Ozo TX","Crockett","Policy","WCID",-101.20138,30.7022249,"Crockett County,TX",30.6517377,-101.3766686,"Policy"
"Crooked Creek WSC","PO Box 382 Canton TX","Van Zandt","Policy","WSC",-99.901813,31.9685988,"Van Zandt County,TX",32.5375642,-95.8292165,"Policy"
"Cross Country WSC","14933 Wortham Bend Rd Chi Spring TX","McLennan","Agriculture","WSC",-97.279239,31.6824914,"McLennan County,TX",31.5487691,-97.2189254,"Agriculture"
"Cross Roads SUD","PO Box 1001 Kilgore TX","Rusk","Flood","SUD",-94.875771,32.3862619,"Rusk County,TX",31.7960064,-95.1502214,"Flood"
"Cross Timbers WSC","2032 E Hickory Hill Rd Argyle TX","Denton","Agriculture","WSC",-97.128913,33.1170729,"Denton County,TX",33.1838787,-97.1413417,"Agriculture"
"Crystal Clear SUD","2370 FM 1979 San Marcos TX","Guadalupe","Flood","SUD",-97.926559,29.7716714,"Guadalupe County,TX",29.6480061,-97.8279576,"Flood"
"CS Water Corporation","102 N 30th St Waco TX","Bosque","Rural","Corporation",-97.155396,31.5364804,"Bosque County,TX",31.8778358,-97.6561014,"Rural"
"Culleoka WSC","PO Box 909 Princeton TX","Collin","Groundwater","WSC",-96.493177,33.1733033,"Collin County,TX",33.1609629,-96.6060984,"Groundwater"
"Cypress Cove WS","180 Tanglewood Trail Ct Spring Branch TX","Comal","Groundwater","WS",-98.3469,29.942336,"Comal County,TX",29.7979704,-98.2690787,"Groundwater"
"Cypress Creek WSC","PO Box 536 Woodville TX","Tyler","Agriculture","WSC",-94.414879,30.7753454,"Tyler County,TX",30.7563939,-94.3984613,"Agriculture"
"Cypress Springs SUD","PO Box 591 Mt Vernon TX","Franklin","Flood","SUD",-95.221332,33.1887271,"Franklin County,TX",33.2002659,-95.2231752,"Flood"
"Cypress Valley WSC","PO Box 220 Woodlawn TX","Harrison","Policy","WSC",-94.345749,32.6681997,"Harrison County,TX",32.5233959,-94.3982158,"Policy"
"D&M WSC","PO Box 9 Douglass TX","Nacogdoches","Policy","WSC",-94.886074,31.6679312,"Nacogdoches County,TX",31.5970503,-94.5927451,"Policy"
"Dallardsville-Segno WSC","PO Box 1592 Livingston TX","Polk","Rural","WSC",-94.93302,30.7110216,"Polk County,TX",30.7642828,-94.8192175,"Rural"
"Dallas","82 Mt Locke Rd Mcdold Observatory TX","Jeff Davis","Flood","N/A",-104.02269,30.6712618,"Jeff Davis County,TX",30.7018281,-104.1501698,"Flood"
"Damascus-Stryker WSC","PO Box 660 Corrigan TX","Polk","Rural","WSC",-94.827257,30.9968861,"Polk County,TX",30.7642828,-94.8192175,"Rural"
"Deanville WSC","PO Box 153 Deanville TX","Burleson","Flood","WSC",-96.756088,30.4321524,"Burleson County,TX",30.4764878,-96.6353488,"Flood"
"Delta County MUD","PO Box 63 Cooper TX","Delta","Policy","MUD",-95.688293,33.3734427,"Delta County,TX",33.3926893,-95.6749486,"Policy"
"Desert WSC","5588 Hwy 160 Whitewright TX","Grayson","Agriculture","WSC",-96.402278,33.42353,"Grayson County,TX",33.5636114,-96.6702111,"Agriculture"
"Devil's Shores WSC","PO Box 421535 Del Rio TX","Val Verde","Flood","WSC",-100.90098,29.3844047,"Val Verde County,TX",29.9153286,-101.1284631,"Flood"
"Dia SUD","PO Box 74 Dia TX","Upshur","Flood","SUD",-94.751669,32.6966684,"Upshur County,TX",32.7263725,-94.9286251,"Flood"
"Dialville Oakland WSC","PO Box 1029 Rusk TX","Cherokee","Agriculture","WSC",-95.150221,31.7960064,"Cherokee County,TX",31.8390826,-95.1791849,"Agriculture"
"Dobbin-Plantersville WSC","PO Box 127 Plantersville TX","Grimes","Agriculture","WSC",-95.864812,30.3371068,"Grimes County,TX",30.5169334,-95.9943034,"Agriculture"
"Dodge Oakhurst WSC","PO Box 425 Dodge TX","San Jacinto","Flood","WSC",-95.397997,30.7454694,"San Jacinto County,TX",30.5083577,-95.1902362,"Flood"
"Dog Ridge WSC","PO Box 232 Belton TX","Bell","Flood","WSC",-97.464453,31.0560132,"Bell County,TX",31.0081659,-97.4314413,"Flood"
"Dogwood Springs WSC","PO Box 608 Frankston TX","Anderson","Policy","WSC",-95.506346,32.0526614,"Anderson County,TX",31.7819242,-95.6258199,"Policy"
"Dripping Springs WSC","101 Hays St, Ste 416 Dripping Springs TX","Hays","Rural","WSC",-98.087845,30.1903723,"Hays County,TX",30.0447901,-98.0393127,"Rural"
"Durham Park WSC","900 Glasscock Rd Liberty Hill TX","Williamson","Rural","WSC",-98.004274,30.6658239,"Williamson County,TX",30.6580927,-97.6041649,"Rural"
"Duval County Conservation & Reclamation Dist.","222 E Main St Bevides TX","Duval","Rural","Conservation District",-98.412147,27.5979135,"Duval County,TX",27.6708701,-98.5121975,"Rural"
"Eagles Peak Ranch WSC","6487 FM 32 FISCHER TX","Comal","Agriculture","WSC",-98.190763,29.930733,"Comal County,TX",29.7979704,-98.2690787,"Agriculture"
"East Bell WSC","16490 State Hwy 53 Temple TX","Bell","Agriculture","WSC",-97.166983,31.0462555,"Bell County,TX",31.0081659,-97.4314413,"Agriculture"
"East Cedar Creek FWSD","PO Box 309 Mabank TX","Henderson","Rural","FWSD",-96.100806,32.3665322,"Henderson County,TX",32.182598,-95.7893178,"Rural"
"East Central SUD","PO Box 570 Adkins TX","Bexar","Policy","SUD",-98.288192,29.3706234,"Bexar County,TX",29.4263987,-98.5104781,"Policy"
"East Fork SUD","1355 Troy Rd Wylie TX","Collin","Policy","SUD",-96.51108,33.0027107,"Collin County,TX",33.1609629,-96.6060984,"Policy"
"East Garrett WSC","PO Box 607 Ennis TX","Ellis","Groundwater","WSC",-96.625268,32.3293111,"Ellis County,TX",32.3347829,-96.7920233,"Groundwater"
"East Medi County SUD","PO Box 628 Devine TX","Medi","Agriculture","SUD",-98.905306,29.1399633,"Medi County,TX",35.1926596,-101.9145937,"Agriculture"
"East Rio Hondo WSC","PO Box 621 / 206 Industrial Pwky Blvd Rio Hondo TX","Cameron","Agriculture","WSC",-97.581932,26.2353516,"Cameron County,TX",26.1291189,-97.4134281,"Agriculture"
"East Texas MUD","12162 Hwy 155 N Tyler TX","Smith","Rural","MUD",-95.195498,32.4409323,"Smith County,TX",32.3402898,-95.2563971,"Rural"
"Eastern Cass WSC","PO Box 26 Bivins TX","Cass","Agriculture","WSC",-94.198781,33.0199564,"Cass County,TX",33.0560857,-94.3510366,"Agriculture"
"Eastland County WSD","PO Box 16 Ranger TX","Eastland","Agriculture","WSD",-98.680921,32.4721338,"Eastland County,TX",32.2978594,-98.8630896,"Agriculture"
"Ebenezer WSC","PO Box 1925 Henderson TX","Rusk","Policy","WSC",-94.79938,32.1532156,"Rusk County,TX",31.7960064,-95.1502214,"Policy"
"Edom WSC","PO Box 245 Brownsboro TX","Van Zandt","Agriculture","WSC",-95.613572,32.3023706,"Van Zandt County,TX",32.5375642,-95.8292165,"Agriculture"
"EL JARDIN WATER SUPPLY CORPORATION","1725 N INDIA AVE BROWNSVILLE TX","Cameron","Groundwater","CORPORATION",-97.407783,25.9360295,"Cameron County,TX",26.1291189,-97.4134281,"Groundwater"
"El Oso WSC","PO Box 309 Karnes City TX","Karnes","Energy","WSC",-97.900836,28.8849772,"Karnes County,TX",28.8791858,-97.9062893,"Energy"
"El Paso County Tornillo WID","PO Box 136 Tornillo TX","El Paso","Agriculture","WID",-106.08775,31.4432296,"El Paso County,TX",31.8072184,-106.2230394,"Agriculture"
"El Paso County WCID #4","PO Box 3880 Fabens TX","El Paso","Flood","WCID",-106.15859,31.50234,"El Paso County,TX",31.8072184,-106.2230394,"Flood"
"Elderville WSC","PO Box 7344 Longview TX","Gregg","Rural","WSC",-94.740489,32.5007037,"Gregg County,TX",32.4492408,-94.8532848,"Rural"
"Ellinger Sewer & WSC","PO Box 130 Ellinger TX","Fayette","Groundwater","WSC",-96.704649,29.838582,"Fayette County,TX",29.8381635,-96.9559692,"Groundwater"
"Elm Creek WSC","603 Avenue E / PO Box 538 Moody TX","McLennan","Rural","WSC",-97.361398,31.3082273,"McLennan County,TX",31.5487691,-97.2189254,"Rural"
"Elmo WSC","PO Box 10 Elmo TX","Kaufman","Flood","WSC",-96.162383,32.7222974,"Kaufman County,TX",32.601641,-96.3375126,"Flood"
"EMC WSC","PO Box 479 Jefferson TX","Marion","Policy","WSC",-94.346412,32.7562959,"Marion County,TX",32.7931661,-94.344488,"Policy"
"Emerald Bay MUD","155 La Salle Rd Bullard TX","Smith","Policy","MUD",-95.428113,32.1558615,"Smith County,TX",32.3402898,-95.2563971,"Policy"
"Enchanted Harbor Utility","2301 ncy Lou St El Campo TX","Wharton","Policy","Utility",-96.28704,29.2033027,"Wharton County,TX",29.2454534,-96.2291474,"Policy"
"Encil WSC","402 N Grande Ave Encil TX","La Salle","Flood","WSC",-99.352026,28.0420411,"La Salle County,TX",28.3391148,-99.0982257,"Flood"
"EOL WSC","9645 Elk Rd Axtell TX","McLennan","Groundwater","WSC",-96.931879,31.6192874,"McLennan County,TX",31.5487691,-97.2189254,"Groundwater"
"Era WSC","PO Box 21, 6955 W FM 922 Era TX","Cooke","Policy","WSC",-97.295325,33.4959254,"Cooke County,TX",33.582486,-97.2055298,"Policy"
"Ericksdahl Water Supply","PO Box 1206 Stamford TX","Jones","Agriculture","Supply",-99.802871,32.9453874,"Jones County,TX",32.7135946,-99.8606106,"Agriculture"
"Etoile WSC","PO Box 67 Etoile TX","Nacogdoches","Groundwater","WSC",-94.436037,31.3868524,"Nacogdoches County,TX",31.5970503,-94.5927451,"Groundwater"
"Eula WSC","5744 FM 603 Clyde TX","Callahan","Groundwater","WSC",-99.561763,32.3463294,"Callahan County,TX",32.2810409,-99.3612437,"Groundwater"
"Fayette County WCID Monument Hill","100 Country Club Drive La Grange TX","Fayette","Rural","WCID",-96.877584,29.883918,"Fayette County,TX",29.8381635,-96.9559692,"Rural"
"Fayette WSC","PO Box 724 La Grange TX","Fayette","Energy","WSC",-96.876647,29.9055033,"Fayette County,TX",29.8381635,-96.9559692,"Energy"
"Five Way WSC","PO Box 667 Center TX","Shelby","Agriculture","WSC",-94.18026,31.7952962,"Shelby County,TX",31.7716364,-94.1301652,"Agriculture"
"Flat Fork WSC","PO Box 957 Center TX","Shelby","Groundwater","WSC",-94.18026,31.7952962,"Shelby County,TX",31.7716364,-94.1301652,"Groundwater"
"FLAT WSC","490 E FM 931 Gatesville TX","Coryell","Policy","WSC",-97.627632,31.3143624,"Coryell County,TX",31.3689333,-97.8184077,"Policy"
"Flo Community WSC","13934 FM 1511 Buffalo TX","Leon","Groundwater","WSC",-95.866336,31.3865463,"Leon County,TX",31.2715127,-95.9953382,"Groundwater"
"Flying L Public Utility District","281 Stone Crest Dr. Bandera TX","Bandera","Agriculture","PUD",-99.043934,29.711192,"Bandera County,TX",29.7643475,-99.234526,"Agriculture"
"Forest WSC","PO Box 311 Wells TX","Cherokee","Policy","WSC",-94.939935,31.488513,"Cherokee County,TX",31.8390826,-95.1791849,"Policy"
"Formosa Plastics Corporation","201 Formosa Drive Point Comfort TX","Calhoun","Agriculture","Corporation",-96.544933,28.6975144,"Calhoun County,TX",28.5031572,-96.6736551,"Agriculture"
"Fort Belkp WSC","315 Fifth Street Graham TX","Young","Groundwater","WSC",-98.593029,33.1099571,"Young County,TX",33.1508315,-98.6962766,"Groundwater"
"Fort Davis Estates, Inc.","201 W Mosley Lane Alpine TX","Brewster","Flood","Company",-103.68984,30.3496475,"Brewster County,TX",29.8462742,-103.2400734,"Flood"
"Fort Davis WSC","PO Box 825 Fort Davis TX","Jeff Davis","Agriculture","WSC",-103.89172,30.5974177,"Jeff Davis County,TX",30.7018281,-104.1501698,"Agriculture"
"Fort Gates WSC","103 Gateway Cir Gatesville TX","Coryell","Energy","WSC",-97.706859,31.4001283,"Coryell County,TX",31.3689333,-97.8184077,"Energy"
"Fort Griffin SUD","1180 County Road 109 Albany TX","Shackelford","Rural","SUD",-99.245643,32.7793755,"Shackelford County,TX",32.7088752,-99.3307616,"Rural"
"Fort Hancock WCID #1","PO Box 65 Fort Hancock TX","Hudspeth","Groundwater","WCID",-105.85517,31.2901549,"Hudspeth County,TX",31.5388627,-105.4752945,"Groundwater"
"Fouke WSC","156 FM 1254 Mineola TX","Wood","Rural","WSC",-95.398884,32.7434163,"Wood County,TX",32.7577475,-95.3812941,"Rural"
"Four Pines WSC","905 Bassett Rd Palestine TX","Anderson","Flood","WSC",-95.67887,31.746593,"Anderson County,TX",31.7819242,-95.6258199,"Flood"
"Four Way SUD","411 N Main St Huntington TX","Angeli","Policy","SUD",-94.576186,31.2803825,"Angeli County,TX",30.034134,-95.73678,"Policy"
"Friberg-Cooper WSC","174 Bailey Rd Wichita Falls TX","Wichita","Energy","WSC",-98.515915,34.0242059,"Wichita County,TX",33.9516534,-98.7088886,"Energy"
"Frio Canon Water Company","4019 Spicewood Springs Rd Austin TX","Real","Agriculture","Company",-97.754,30.3683131,"Real County,TX",29.7949383,-99.8280905,"Agriculture"
"Frognot WSC","PO Box 400 Blue Ridge TX","Collin","Rural","WSC",-96.400365,33.2969066,"Collin County,TX",33.1609629,-96.6060984,"Rural"
"Fruitvale WSC","PO Box 75 Fruitvale TX","Van Zandt","Flood","WSC",-95.803298,32.6831851,"Van Zandt County,TX",32.5375642,-95.8292165,"Flood"
"G&W WSC","PO Box 1219 Waller TX","Waller","Policy","WSC",-95.926899,30.0566085,"Waller County,TX",29.9443902,-95.9955885,"Policy"
"Gafford Chapel WSC","PO Box 1160 Sulphur Springs TX","Hopkins","Flood","WSC",-95.6007,33.1397692,"Hopkins County,TX",33.1368252,-95.5656578,"Flood"
"Galveston Co WCID 19","PO Box 105 Hitchcock TX","Galveston","Agriculture","WCID",-95.016037,29.3482905,"Galveston County,TX",29.3872254,-94.992736,"Agriculture"
"Garden City Water System","PO Box 356 Garden City TX","Glasscock","Groundwater","Water System",-101.47898,31.8641337,"Glasscock County,TX",31.8640224,-101.4811312,"Groundwater"
"Gary WSC","PO Box 160 Gary TX","Panola","Agriculture","WSC",-94.370904,32.0292089,"Panola County,TX",32.1367712,-94.3130073,"Agriculture"
"Gaston WSC","5444 State Hwy 64 W Henderson TX","Rusk","Energy","WSC",-94.876254,32.1734064,"Rusk County,TX",31.7960064,-95.1502214,"Energy"
"Gastonia-Scurry SUD","PO Box 68 Scurry TX","Kaufman","Agriculture","SUD",-96.380817,32.5187487,"Kaufman County,TX",32.601641,-96.3375126,"Agriculture"
"Gause WSC","PO Box 97 Gause TX","Milam","Groundwater","WSC",-96.721364,30.7851923,"Milam County,TX",30.7626867,-96.9981706,"Groundwater"
"Gholson WSC","12520 Gholson Rd Waco TX","McLennan","Groundwater","WSC",-97.210477,31.6954701,"McLennan County,TX",31.5487691,-97.2189254,"Groundwater"
"Gill WSC","2323 FM 2625 W Marshall TX","Harrison","Rural","WSC",-94.384321,32.4298303,"Harrison County,TX",32.5233959,-94.3982158,"Rural"
"Glendale WSC","PO Box 1404 Trinity TX","Trinity","Energy","WSC",-95.373387,30.9463502,"Trinity County,TX",31.0834452,-95.1219348,"Energy"
"Glenwood WSC","6792 FM 726 S Gilmer TX","Upshur","Energy","WSC",-94.842058,32.6440382,"Upshur County,TX",32.7263725,-94.9286251,"Energy"
"Glidden FWSD #1","PO Box 85 Columbus TX","Colorado","Energy","FWSD",-96.539693,29.7066232,"Colorado County,TX",29.6099609,-96.5478826,"Energy"
"Goforth SUD","8900 Niederwald Strasse Niederwald TX","Hays","Groundwater","SUD",-97.730192,30.0100448,"Hays County,TX",30.0447901,-98.0393127,"Groundwater"
"Golden WSC","PO Box 148 Golden TX","Wood","Groundwater","WSC",-95.563013,32.7295732,"Wood County,TX",32.7577475,-95.3812941,"Groundwater"
"Goldenwood West WSC","26550 Rr 12, Ste 1 Dripping Springs TX","Hays","Energy","WSC",-98.084456,30.1779363,"Hays County,TX",30.0447901,-98.0393127,"Energy"
"Golinda WSC","6658 Golinda Dr Lore TX","McLennan","Groundwater","WSC",-97.082982,31.3772009,"McLennan County,TX",31.5487691,-97.2189254,"Groundwater"
"Gonzales County WSC","PO Box 749 Gonzales TX","Gonzales","Policy","WSC",-97.452493,29.5016257,"Gonzales County,TX",29.4436555,-97.5108636,"Policy"
"Goodsprings WSC","6713 US Hwy 79 S Henderson TX","Rusk","Rural","WSC",-94.875465,32.092148,"Rusk County,TX",31.7960064,-95.1502214,"Rural"
"Graham East WSC","PO Box 1330 Graham TX","Young","Policy","WSC",-98.589502,33.1070597,"Young County,TX",33.1508315,-98.6962766,"Policy"
"Grand Harbor WSC","4101 W Green Oaks Blvd, Ste 305, PMB 188 Arlington TX","Tarrant","Agriculture","WSC",-97.195121,32.6821746,"Tarrant County,TX",32.7513658,-97.335696,"Agriculture"
"Greater Gardendale WSC","PO Box 322 Gardendale TX","Ector","Rural","WSC",-102.38245,32.034474,"Ector County,TX",31.8941755,-102.5794339,"Rural"
"Green Creek WSC","316 N Patrick Dublin TX","Erath","Rural","WSC",-98.341636,32.0890083,"Erath County,TX",32.1954856,-98.2213499,"Rural"
"Green Springs WSC","PO Box 129 Sanger TX","Denton","Groundwater","WSC",-97.173903,33.3631705,"Denton County,TX",33.1838787,-97.1413417,"Groundwater"
"Green Valley SUD","PO Box 99 Marion TX","Guadalupe","Energy","SUD",-98.140287,29.5713402,"Guadalupe County,TX",29.6480061,-97.8279576,"Energy"
"Gum Creek WSC","PO Box 1230 Jacksonville TX","Cherokee","Agriculture","WSC",-95.277148,31.9613878,"Cherokee County,TX",31.8390826,-95.1791849,"Agriculture"
"Gum Springs WSC","PO Box 750 Hallsville TX","Harrison","Policy","WSC",-94.574093,32.504316,"Harrison County,TX",32.5233959,-94.3982158,"Policy"
"H&H WSC","172 Old Hallsburg Rd Riesel TX","McLennan","Agriculture","WSC",-96.9896,31.5220701,"McLennan County,TX",31.5487691,-97.2189254,"Agriculture"
"Hamby WSC","4043 State Hwy 351 Abilene TX","Taylor","Energy","WSC",-99.642988,32.5048042,"Taylor County,TX",32.2793121,-99.8812612,"Energy"
"Harbor Grove WSC","PO Box 575 Lake Dallas TX","Denton","Policy","WSC",-97.030564,33.1214385,"Denton County,TX",33.1838787,-97.1413417,"Policy"
"Hardin WSC","PO box 819 Hardin TX","Liberty","Agriculture","WSC",-94.739089,30.1524348,"Liberty County,TX",30.0856736,-94.7856262,"Agriculture"
"Harleton WSC","PO Box 372 Harleton TX","Harrison","Agriculture","WSC",-94.57236,32.6751222,"Harrison County,TX",32.5233959,-94.3982158,"Agriculture"
"Harris County MUD #50","12900 Crosby Lynchburg Rd Barrett Station TX","Harris","Policy","MUD",-95.061412,29.877277,"Harris County,TX",29.8119769,-95.3741247,"Policy"
"Hartley WSC","PO Box 17 Hartley TX","Hartley","Rural","WSC",-102.39577,35.8843836,"Hartley County,TX",35.8418438,-102.6145811,"Rural"
"Hawley WSC","PO Box 296 Hawley TX","Jones","Flood","WSC",-99.814259,32.6120643,"Jones County,TX",32.7135946,-99.8606106,"Flood"
"Hazy Hills WSC","PO Box 592 Spicewood TX","Burnet","Groundwater","WSC",-98.158869,30.462847,"Burnet County,TX",30.7763939,-98.1700016,"Groundwater"
"Hermleigh Water System","1806 25th Street, Suite 200 Snyder TX","Scurry","Rural","N/A",-100.9178,32.7166141,"Scurry County,TX",32.7225172,-100.9052015,"Rural"
"Hickory Creek SUD","PO Box 540 Celeste TX","Hunt","Agriculture","SUD",-96.194698,33.2942791,"Hunt County,TX",33.1161567,-96.0808922,"Agriculture"
"High Point SUD","16986 Valley View Forney TX","Kaufman","Policy","SUD",-96.433758,32.7983908,"Kaufman County,TX",32.601641,-96.3375126,"Policy"
"High Prairie WSC","PO Box 537 Madisonville TX","Madison","Energy","WSC",-95.911619,30.9499111,"Madison County,TX",30.9551586,-95.9507234,"Energy"
"Highland Park WSC","PO Box 254 Chi Spring TX","Bosque","Flood","WSC",-97.307119,31.6457098,"Bosque County,TX",31.8778358,-97.6561014,"Flood"
"Highway 117 WSC","PO Box 1117 Uvalde TX","Uvalde","Agriculture","WSC",-99.786168,29.2096836,"Uvalde County,TX",29.300357,-99.7733181,"Agriculture"
"Hilco H20","PO Box 127 Itasca TX","Hill","Energy","N/A",-97.149609,32.1600302,"Hill County,TX",31.9595085,-97.0881654,"Energy"
"Hill County WSC","PO Box 575 Whitney TX","Hill","Groundwater","WSC",-97.315709,31.9519106,"Hill County,TX",31.9595085,-97.0881654,"Groundwater"
"Hilltop Lakes WSC","PO Box 1460 Hilltop Lakes TX","Leon","Flood","WSC",-96.20385,31.0793515,"Leon County,TX",31.2715127,-95.9953382,"Flood"
"Hog Creek WSC","PO Box 645 Valley Mills TX","McLennan","Agriculture","WSC",-97.472238,31.6593282,"McLennan County,TX",31.5487691,-97.2189254,"Agriculture"
"Holly Springs WSC","PO Box 1078 Hughes Springs TX","Cass","Groundwater","WSC",-94.630759,32.998462,"Cass County,TX",33.0560857,-94.3510366,"Groundwater"
"Hudson WSC","3032 Ted Trout Dr Lufkin TX","Angeli","Groundwater","WSC",-94.779755,31.330484,"Angeli County,TX",30.034134,-95.73678,"Groundwater"
"Hudspeth County WCID #1","PO Box 188 Sierra Blanca TX","Hudspeth","Groundwater","WCID",-105.36008,31.1759185,"Hudspeth County,TX",31.5388627,-105.4752945,"Groundwater"
"Ira WSC","PO Box 186 Ira TX","Scurry","Energy","WSC",-101.00342,32.581721,"Scurry County,TX",32.7225172,-100.9052015,"Energy"
"Iron Hill WSC","PO Box 405 Rusk TX","Cherokee","Groundwater","WSC",-95.150221,31.7960064,"Cherokee County,TX",31.8390826,-95.1791849,"Groundwater"
"Jackson County WCID #1","PO Box 407 Lolita TX","Jackson","Flood","WCID",-96.542474,28.8394332,"Jackson County,TX",28.9224028,-96.55561,"Flood"
"Jackson WSC","17764 County Road 26 Tyler TX","Smith","Policy","WSC",-95.110849,32.3552386,"Smith County,TX",32.3402898,-95.2563971,"Policy"
"Jacobia WSC","PO Box 411 Greenville TX","Hunt","Groundwater","WSC",-96.110807,33.1384488,"Hunt County,TX",33.1161567,-96.0808922,"Groundwater"
"Jamestown WSC","PO Box 886 Jasper TX","Jasper","Groundwater","WSC",-94.002842,30.9216998,"Jasper County,TX",30.7485258,-94.000884,"Groundwater"
"Jefferson Co WCID 10","3707 Central Blvd Nederland TX","Jefferson","Agriculture","WCID",-94.021916,29.9937412,"Jefferson County,TX",29.834772,-94.1704496,"Agriculture"
"Joh Water SUD","P.O. Box 455 Hutto TX","Williamson","Groundwater","SUD",-97.54667,30.5426995,"Williamson County,TX",30.6580927,-97.6041649,"Groundwater"
"Johnson County SUD","740 FM 3048 Joshua TX","Johnson","Agriculture","SUD",-97.37221,32.4208228,"Johnson County,TX",32.3766071,-97.3568623,"Agriculture"
"Jones WSC","1650 N State Hwy 37 Quitman TX","Wood","Flood","WSC",-95.422599,32.8341985,"Wood County,TX",32.7577475,-95.3812941,"Flood"
"Jonestown WSC","PO Box 5096 Jonestown TX","Travis","Flood","WSC",-97.923347,30.4954748,"Travis County,TX",30.2878569,-97.7561392,"Flood"
"Keen WSC","21053 Chapel Dr Montgomery TX","Montgomery","Flood","N/A",-95.694145,30.3169679,"Montgomery County,TX",30.301949,-95.5065944,"Flood"
"Kellyville-Berea WSC","PO Box 459 Jefferson TX","Marion","Groundwater","WSC",-94.345193,32.7573626,"Marion County,TX",32.7931661,-94.344488,"Groundwater"
"Kempner WSC","PO Box 103 Kempner TX","Lampasas","Energy","WSC",-98.002525,31.081007,"Lampasas County,TX",31.1761363,-98.240563,"Energy"
"Kendall West Utility LLC","PO Box 1335 Boerne TX","Kendall","Rural","LLC",-98.755362,29.7945883,"Kendall County,TX",29.943885,-98.7258845,"Rural"
"Kennedy Ridge WSC","PO Box 758 Del Valle TX","Travis","Agriculture","WSC",-97.647235,30.2091069,"Travis County,TX",30.2878569,-97.7561392,"Agriculture"
"Kentuckytown WSC","PO Box 99 Tom Bean TX","Grayson","Groundwater","WSC",-96.484364,33.5203463,"Grayson County,TX",33.5636114,-96.6702111,"Groundwater"
"King Creek WSC","PO Box 60 Clifton TX","Bosque","Policy","WSC",-97.576686,31.7823798,"Bosque County,TX",31.8778358,-97.6561014,"Policy"
"Kings Point WSC","650 Kings Point Dr Canyon Lake TX","Comal","Flood","WSC",-98.254717,29.9011617,"Comal County,TX",29.7979704,-98.2690787,"Flood"
"Kingsland WSC","PO Box 73 Kingsland TX","Llano","Groundwater","WSC",-98.445452,30.6600643,"Llano County,TX",30.6663312,-98.6970374,"Groundwater"
"Lake Bonza WSC","P.O. Box 507 Montgomery TX","Montgomery","Policy","WSC",-95.696336,30.3882613,"Montgomery County,TX",30.301949,-95.5065944,"Policy"
"Lake Fork WSC","8087 W FM 515 Yantis TX","Wood","Policy","WSC",-95.587405,32.8904618,"Wood County,TX",32.7577475,-95.3812941,"Policy"
"Lake Kiowa SUD","133 Kiowa Dr S Lake Kiowa TX","Cooke","Flood","SUD",-97.014439,33.5530825,"Cooke County,TX",33.582486,-97.2055298,"Flood"
"Lake Livingston WSC","PO Box 1149 Livingston TX","Polk","Rural","WSC",-94.93302,30.7110216,"Polk County,TX",30.7642828,-94.8192175,"Rural"
"Lake Palo Pinto Area WSC","PO Box 410 Gordon TX","Palo Pinto","Groundwater","WSC",-98.369216,32.5484637,"Palo Pinto County,TX",32.7215726,-98.2814881,"Groundwater"
"Lake Ridge Water System, LP","1301 S Capital of TX Hwy, Ste A234 Austin TX","Val Verde","Groundwater","N/A",-97.819077,30.2795378,"Val Verde County,TX",29.9153286,-101.1284631,"Groundwater"
"Lakeland Services","279 CR 160 Brady TX","McCulloch","Groundwater","N/A",-99.44357,31.1596122,"McCulloch County,TX",31.1699604,-99.3885277,"Groundwater"
"Lamar County WSD","150 CR 32180 Brookston TX","Lamar","Rural","WSD",-95.644507,33.6564462,"Lamar County,TX",33.6383552,-95.582343,"Rural"
"Lapoynor ISD","13155 Us Hwy 175 E Larue TX","Henderson","Groundwater","N/A",-95.638786,32.0969806,"Henderson County,TX",32.182598,-95.7893178,"Groundwater"
"Lavaca - Navidad River Authority","PO Box 429 Ed TX","Jackson","Groundwater","RA",-96.646088,28.9785947,"Jackson County,TX",28.9224028,-96.55561,"Groundwater"
"Lawrence WSC","PO Box 75 / 13209 Chestnut Cir Terrell TX","Kaufman","Flood","WSC",-96.344398,32.7470826,"Kaufman County,TX",32.601641,-96.3375126,"Flood"
"Leagueville WSC","PO Box 462 Brownsboro TX","Henderson","Rural","WSC",-95.613572,32.3023706,"Henderson County,TX",32.182598,-95.7893178,"Rural"
"Lee County WSC","PO Box 8 Giddings TX","Lee","Energy","WSC",-96.935493,30.1827996,"Lee County,TX",30.3031353,-96.9588587,"Energy"
"Leggett WSC","PO Box 757 Livingston TX","Polk","Rural","WSC",-94.93302,30.7110216,"Polk County,TX",30.7642828,-94.8192175,"Rural"
"Leigh WSC","PO Box 1408 Marshall TX","Harrison","Groundwater","WSC",-94.367418,32.5448714,"Harrison County,TX",32.5233959,-94.3982158,"Groundwater"
"Leon Junction WSC","1375 CR 321 Gatesville TX","Coryell","Flood","WSC",-97.615859,31.3581441,"Coryell County,TX",31.3689333,-97.8184077,"Flood"
"Leroy-Tours-Gerald WSC","312 W Commerce Leroy TX","McLennan","Rural","WSC",-97.019798,31.7305687,"McLennan County,TX",31.5487691,-97.2189254,"Rural"
"Levi WSC","PO Box 490 / 2757 Rosenthal Pkwy Lore TX","McLennan","Agriculture","WSC",-97.173112,31.388717,"McLennan County,TX",31.5487691,-97.2189254,"Agriculture"
"Libby WSC","PO Box 115 Martinsville TX","Nacogdoches","Policy","WSC",-94.414093,31.6426792,"Nacogdoches County,TX",31.5970503,-94.5927451,"Policy"
"Liberty City WSC","6144 Gateway Ctr, Ste 349 Kilgore TX","Gregg","Flood","WSC",-94.928875,32.4413106,"Gregg County,TX",32.4492408,-94.8532848,"Flood"
"Lilbert-Looneyville WSC","PO Box 512 Cushing TX","Nacogdoches","Flood","WSC",-94.840534,31.8131977,"Nacogdoches County,TX",31.5970503,-94.5927451,"Flood"
"Lincoln WSC","PO Box 276 Lincoln TX","Lee","Flood","WSC",-96.963316,30.2874348,"Lee County,TX",30.3031353,-96.9588587,"Flood"
"Lindale Rural WSC","PO Box 756 Lindale TX","Smith","Rural","WSC",-95.4094,32.5156971,"Smith County,TX",32.3402898,-95.2563971,"Rural"
"Little Hope-Moore WSC","150 FM 16 Canton TX","Van Zandt","Policy","WSC",-95.8007,32.5157605,"Van Zandt County,TX",32.5375642,-95.8292165,"Policy"
"Llano County MUD #1","2900 Blue Lake Dr Horseshoe Bay TX","Llano","Flood","MUD",-98.41355,30.5634128,"Llano County,TX",30.6663312,-98.6970374,"Flood"
"Lohn WSC","PO Box 181 Lohn TX","McCulloch","Flood","WSC",-99.410057,31.3237752,"McCulloch County,TX",31.1699604,-99.3885277,"Flood"
"Lone Pine WSC","PO Box 1616 Palestine TX","Anderson","Groundwater","WSC",-95.630789,31.7621153,"Anderson County,TX",31.7819242,-95.6258199,"Groundwater"
"Lone Star Water Company","PO Box 827, Litchfield Park. AZ 85340 Justin TX","Hays","Flood","Company",-112.35794,33.4933743,"Hays County,TX",30.0447901,-98.0393127,"Flood"
"Loop WSC","PO Box N Loop TX","Gaines","Groundwater","WSC",-106.27252,31.6568815,"Gaines County,TX",32.7044935,-102.6220553,"Groundwater"
"Lost Springs Ranch WSC","PO Box 1404 Wimberley TX","Hays","Groundwater","WSC",-98.09862,29.9974362,"Hays County,TX",30.0447901,-98.0393127,"Groundwater"
"Lower Valley Water District","1557 FM 1110 RD CLINT TX","El Paso","Flood","WD",-106.20005,31.5976975,"El Paso County,TX",31.8072184,-106.2230394,"Flood"
"Luella SUD","36 LWSC Rd Sherman TX","Grayson","Rural","SUD",-96.549171,33.5692765,"Grayson County,TX",33.5636114,-96.6702111,"Rural"
"Lyons WSC","PO Box 407 Lyons TX","Burleson","Flood","WSC",-96.563303,30.3863198,"Burleson County,TX",30.4764878,-96.6353488,"Flood"
"M&M WSC","4616 E State Hwy 103 Lufkin TX","Angeli","Rural","WSC",-94.66217,31.3507592,"Angeli County,TX",30.034134,-95.73678,"Rural"
"MacBee SUD","PO Box 780 Wills Point TX","Van Zandt","Flood","SUD",-96.008302,32.7092955,"Van Zandt County,TX",32.5375642,-95.8292165,"Flood"
"Madera Valley WSC","PO Box 9009 Verhalen TX","Reeves","Rural","WSC",-103.59351,31.1265311,"Reeves County,TX",31.232003,-103.6583657,"Rural"
"Manville WSC","PO Box 248 Coupland TX","Travis","Rural","WSC",-97.393764,30.4593549,"Travis County,TX",30.2878569,-97.7561392,"Rural"
"Marathon WSC","PO Box 322 Marathon TX","Brewster","Groundwater","WSC",-103.24462,30.2051688,"Brewster County,TX",29.8462742,-103.2400734,"Groundwater"
"Marilee SUD","PO Box 1017 Celi TX","Collin","Rural","SUD",-96.785735,33.3246957,"Collin County,TX",33.1609629,-96.6060984,"Rural"
"Markham MUD","PO Box 311 Markham TX","Matagorda","Groundwater","MUD",-96.065238,28.9602581,"Matagorda County,TX",28.8879823,-96.0035095,"Groundwater"
"Markout WSC","PO Box 907 Forney TX","Kaufman","Rural","WSC",-96.471931,32.7481845,"Kaufman County,TX",32.601641,-96.3375126,"Rural"
"Marsha WSC","15504 Brenda St Austin TX","Travis","Rural","WSC",-97.67105,30.453265,"Travis County,TX",30.2878569,-97.7561392,"Rural"
"Martin Springs WSC","PO Box 9 Como TX","Hopkins","Agriculture","WSC",-95.473123,33.0593377,"Hopkins County,TX",33.1368252,-95.5656578,"Agriculture"
"Martindale WSC","PO Box 175 Martindale TX","Caldwell","Energy","WSC",-97.842813,29.8445851,"Caldwell County,TX",29.8298971,-97.5959641,"Energy"
"Matagorda County WCID #5","PO Box 125 Blessing TX","Matagorda","Groundwater","WCID",-96.218021,28.8713733,"Matagorda County,TX",28.8879823,-96.0035095,"Groundwater"
"Matagorda County WCID #6","PO Box 316 Van Vleck TX","Matagorda","Energy","N/A",-95.88967,29.0187284,"Matagorda County,TX",28.8879823,-96.0035095,"Energy"
"Matagorda WD & WSC","PO Box 196 Matagorda TX","Matagorda","Flood","WSC",-95.968271,28.691133,"Matagorda County,TX",28.8879823,-96.0035095,"Flood"
"Matthew Road WSC","1502 Ranch Road Grand Prairie TX","Dallas","Rural","WSC",-97.024202,32.6426058,"Dallas County,TX",32.7620405,-96.7790069,"Rural"
"Mauriceville MUD","PO Box 1000 Mauriceville TX","Orange","Policy","MUD",-93.871584,30.2090098,"Orange County,TX",30.1228634,-93.9041169,"Policy"
"MAVERICK COUNTY WCID#1","1622 MAVERICK INDUSTRIAL PARK ROAD EAGLE PASS TX","Maverick","Agriculture","WCID#1",-100.43633,28.6347689,"Maverick County,TX",28.792861,-100.3110817,"Agriculture"
"Maxwell SUD","PO Box 158 Maxwell TX","Caldwell","Energy","SUD",-97.795472,29.8785623,"Caldwell County,TX",29.8298971,-97.5959641,"Energy"
"May WSC","PO Box 98 May TX","Brown","Groundwater","WSC",-98.920474,31.9794567,"Brown County,TX",31.7525184,-98.9904722,"Groundwater"
"Maydelle WSC","P.O. Box 141 Maydelle TX","Cherokee","Flood","WSC",-95.302409,31.8001854,"Cherokee County,TX",31.8390826,-95.1791849,"Flood"
"McClelland WSC","6438 Hwy 87 South Shelbyville TX","Shelby","Energy","WSC",-94.06765,31.742456,"Shelby County,TX",31.7716364,-94.1301652,"Energy"
"McCoy WSC","2125 FM 541 Mccoy TX","Atascosa","Agriculture","WSC",-98.347496,28.86141,"Atascosa County,TX",28.8554434,-98.5316314,"Agriculture"
"McCraw's Chapel WSC","11395 E FM 1550 Honey Grove TX","Fannin","Rural","WSC",-95.957754,33.4874609,"Fannin County,TX",33.5372542,-96.0902822,"Rural"
"McLenn County WCID #2","PO Box 116 Elm Mott TX","McLennan","Policy","WCID",-97.10083,31.670983,"McLennan County,TX",31.5487691,-97.2189254,"Policy"
"Medi River West WSC","PO Box 548 Castroville TX","Medi","Energy","WSC",-98.878639,29.3557903,"Medi County,TX",35.1926596,-101.9145937,"Energy"
"Medi WSC","PO Box 1384 Medi TX","Bandera","Policy","WSC",-99.248516,29.7972496,"Bandera County,TX",29.7643475,-99.234526,"Policy"
"Melrose WSC","P.O. Box 120 Chireno TX","Nacogdoches","Policy","WSC",-94.351806,31.4994168,"Nacogdoches County,TX",31.5970503,-94.5927451,"Policy"
"Memorial Point MUD","PO Box 1193 Livingston TX","Polk","Energy","MUD",-94.93302,30.7110216,"Polk County,TX",30.7642828,-94.8192175,"Energy"
"Menlow WSC","2476 FM 1304 Abbott TX","Hill","Flood","WSC",-97.171439,31.8641216,"Hill County,TX",31.9595085,-97.0881654,"Flood"
"Mercy WSC","51 Perry Ln Cleveland TX","San Jacinto","Policy","WSC",-95.108135,30.39347,"San Jacinto County,TX",30.5083577,-95.1902362,"Policy"
"Midfield WSC","PO Box 94 Midfield TX","Matagorda","Agriculture","WSC",-96.212411,28.9392173,"Matagorda County,TX",28.8879823,-96.0035095,"Agriculture"
"Milano WSC","PO Box 181 Milano TX","Milam","Energy","WSC",-96.863314,30.7104729,"Milam County,TX",30.7626867,-96.9981706,"Energy"
"Military Highway WSC","PO Box 250 Progreso TX","Hidalgo","Groundwater","WSC",-97.957224,26.0922991,"Hidalgo County,TX",26.3530256,-98.216445,"Groundwater"
"Miller Grove WSC","14966 FM 1567 W Cumby TX","Hopkins","Groundwater","WSC",-95.806492,33.0203798,"Hopkins County,TX",33.1368252,-95.5656578,"Groundwater"
"Millersview Doole WSC","PO Box 130 Millersview TX","Concho","Energy","WSC",-99.755282,31.411159,"Concho County,TX",31.3102947,-99.8507578,"Energy"
"Milligan WSC","1400 S Bridgefarmer Rd Mckinney TX","Collin","Flood","WSC",-96.547274,33.1706012,"Collin County,TX",33.1609629,-96.6060984,"Flood"
"Millsap WSC","PO Box 158 Millsap TX","Parker","Rural","WSC",-98.007963,32.7465237,"Parker County,TX",32.7599475,-97.7935767,"Rural"
"Mims WSC","12688 FM 729 Avinger TX","Marion","Rural","WSC",-94.610196,32.8197552,"Marion County,TX",32.7931661,-94.344488,"Rural"
"Minden-Brachfield WSC","11389 CR 317 S Henderson TX","Rusk","Policy","WSC",-94.707894,32.0140536,"Rusk County,TX",31.7960064,-95.1502214,"Policy"
"Minerva WSC","466 Cedar Grove Rd Rockdale TX","Milam","Energy","WSC",-96.980038,30.7555999,"Milam County,TX",30.7626867,-96.9981706,"Energy"
"MJC WSC","PO Box 95 Pattonville TX","Lamar","Rural","WSC",-95.392375,33.579608,"Lamar County,TX",33.6383552,-95.582343,"Rural"
"Moffat WSC","5460 Lakeaire Blvd Temple TX","Bell","Flood","WSC",-97.46666,31.1804349,"Bell County,TX",31.0081659,-97.4314413,"Flood"
"Moore Station WSC","4700 CR 4319 Larue TX","Henderson","Agriculture","WSC",-95.674683,32.1168234,"Henderson County,TX",32.182598,-95.7893178,"Agriculture"
"Mooreville WSC","261 CR 499 A Chilton TX","Falls","Groundwater","WSC",-97.130202,31.2965726,"Falls County,TX",31.2320941,-96.9262126,"Groundwater"
"Morgan Mill WSC","PO Box 7 Morgan Mill TX","Erath","Groundwater","WSC",-98.170032,32.3841586,"Erath County,TX",32.1954856,-98.2213499,"Groundwater"
"Morton Valley WSC","PO Box 550 Eastland TX","Eastland","Groundwater","WSC",-98.817562,32.4015198,"Eastland County,TX",32.2978594,-98.8630896,"Groundwater"
"Moscow WSC","PO Box 250 Moscow TX","Polk","Energy","WSC",-94.825209,30.9132479,"Polk County,TX",30.7642828,-94.8192175,"Energy"
"Mountain Peak SUD","5671 Waterworks Rd Midlothian TX","Ellis","Energy","SUD",-97.023593,32.4213844,"Ellis County,TX",32.3347829,-96.7920233,"Energy"
"Mountain Springs WSC","PO Box 219 Valley View TX","Cooke","Groundwater","WSC",-97.165013,33.4881671,"Cooke County,TX",33.582486,-97.2055298,"Groundwater"
"Mountain WSC","PO Box 1045 Gatesville TX","Coryell","Rural","WSC",-97.743911,31.4351645,"Coryell County,TX",31.3689333,-97.8184077,"Rural"
"MS WSC","12910 East Hwy 6 Riesel TX","McLennan","Rural","WSC",-96.932363,31.4941134,"McLennan County,TX",31.5487691,-97.2189254,"Rural"
"MSEC Enterprises Inc.","PO Box 970 vasota TX","Grimes","Rural","N/A",-96.087735,30.3879845,"Grimes County,TX",30.5169334,-95.9943034,"Rural"
"Mt Enterprise WSC","PO Box 368 Mt Enterprise TX","Rusk","Policy","WSC",-94.682815,31.9185193,"Rusk County,TX",31.7960064,-95.1502214,"Policy"
"Multi County WSC","PO Box 1006 Gatesville TX","Coryell","Energy","WSC",-97.743911,31.4351645,"Coryell County,TX",31.3689333,-97.8184077,"Energy"
"Mustang SUD","7985 FM 2931 Aubrey TX","Denton","Groundwater","SUD",-96.937226,33.3049845,"Denton County,TX",33.1838787,-97.1413417,"Groundwater"
"Mustang Valley WSC","PO Box 6 Cranfills Gap TX","Bosque","Energy","WSC",-97.82586,31.7737659,"Bosque County,TX",31.8778358,-97.6561014,"Energy"
"Myrtle Springs WSC","PO Box 99 Canton TX","Van Zandt","Agriculture","WSC",-99.901813,31.9685988,"Van Zandt County,TX",32.5375642,-95.8292165,"Agriculture"
"Neches WSC","PO Box 217 Neches TX","Anderson","Policy","WSC",-95.495714,31.8675217,"Anderson County,TX",31.7819242,-95.6258199,"Policy"
"Nevada SUD","108 N Warren St Nevada TX","Collin","Groundwater","SUD",-96.373575,33.0428727,"Collin County,TX",33.1609629,-96.6060984,"Groundwater"
"New Alsace WSC","2908 Avenue H Hondo TX","Medi","Flood","WSC",-99.136752,29.3380714,"Medi County,TX",35.1926596,-101.9145937,"Flood"
"New Ulm WSC","PO Box 73 New Ulm TX","Austin","Groundwater","WSC",-96.490248,29.8921715,"Austin County,TX",29.8916488,-96.2443467,"Groundwater"
"Noack WSC","PO Box 323 Thrall TX","Williamson","Rural","WSC",-97.29694,30.5904772,"Williamson County,TX",30.6580927,-97.6041649,"Rural"
"Noco Hills WSC","102 Noco Dr Noco TX","Montague","Flood","WSC",-97.619598,33.83824,"Montague County,TX",33.6205753,-97.7215754,"Flood"
"North Alamo WSC","420 S Doolittle Rd Edinburg TX","Hidalgo","Rural","WSC",-98.128522,26.2916854,"Hidalgo County,TX",26.3530256,-98.216445,"Rural"
"North Bosque WSC","PO Box 330 Crawford TX","McLennan","Energy","WSC",-97.44307,31.5343308,"McLennan County,TX",31.5487691,-97.2189254,"Energy"
"North Cherokee WSC","PO Box 1021 Jacksonville TX","Cherokee","Agriculture","WSC",-95.270504,31.963778,"Cherokee County,TX",31.8390826,-95.1791849,"Agriculture"
"North Collin SUD","PO Box 343 Melissa TX","Collin","Groundwater","SUD",-96.572767,33.2859472,"Collin County,TX",33.1609629,-96.6060984,"Groundwater"
"North Hamilton Hill WSC","PO Box 233 Franklin TX","Robertson","Policy","WSC",-96.485244,31.0260194,"Robertson County,TX",31.0339058,-96.5079742,"Policy"
"North Hardin WSC","PO Box 55 Silsbee TX","Hardin","Groundwater","WSC",-94.177962,30.3490976,"Hardin County,TX",30.3049642,-94.403904,"Groundwater"
"North Harrison WSC","PO Box 130 Woodlawn TX","Harrison","Groundwater","WSC",-94.345749,32.6681997,"Harrison County,TX",32.5233959,-94.3982158,"Groundwater"
"North Hopkins WSC","PO Box 407 Sulphur Springs TX","Hopkins","Agriculture","WSC",-95.601067,33.1384479,"Hopkins County,TX",33.1368252,-95.5656578,"Agriculture"
"North Hunt SUD","PO Box 1170 Commerce TX","Hunt","Groundwater","SUD",-95.899966,33.2470567,"Hunt County,TX",33.1161567,-96.0808922,"Groundwater"
"North Kaufman WSC","PO Box 870 Kaufman TX","Kaufman","Energy","WSC",-96.308869,32.5890238,"Kaufman County,TX",32.601641,-96.3375126,"Energy"
"North Milam WSC","PO Box 150 Cameron TX","Milam","Rural","WSC",-96.97693,30.8532454,"Milam County,TX",30.7626867,-96.9981706,"Rural"
"North Runnels WSC","PO Box 895 Winters TX","Runnels","Policy","WSC",-99.962313,31.9565343,"Runnels County,TX",31.8282551,-99.9779922,"Policy"
"North Rural WSC","PO BOX 716 Mineral Wells TX","Palo Pinto","Policy","WSC",-98.112822,32.8084605,"Palo Pinto County,TX",32.7215726,-98.2814881,"Policy"
"North San Saba WSC","PO Box 598 San Saba TX","San Saba","Groundwater","WSC",-98.718032,31.1913299,"San Saba County,TX",31.122268,-98.8397049,"Groundwater"
"North Zulch MUD","PO Box 118 North Zulch TX","Madison","Rural","MUD",-96.108291,30.9176895,"Madison County,TX",30.9551586,-95.9507234,"Rural"
"Northeast Texas MWD","PO Box 955 Hughes Springs TX","Marion","Groundwater","MWD",-94.630759,32.998462,"Marion County,TX",32.7931661,-94.344488,"Groundwater"
"Northpark WSC","276 County Road 432 Dayton TX","Liberty","Rural","WSC",-94.840872,29.9328689,"Liberty County,TX",30.0856736,-94.7856262,"Rural"
"Northwest Grayson County WCID #1","PO Box 715 Gordonville TX","Grayson","Energy","WCID",-96.853673,33.7957694,"Grayson County,TX",33.5636114,-96.6702111,"Energy"
"Northwood WSC","25652 Walnut Ln Cleveland TX","Montgomery","Groundwater","WSC",-95.164561,30.2802463,"Montgomery County,TX",30.301949,-95.5065944,"Groundwater"
"Norwood WSC","207 Hill St Farmersville TX","Anderson","Rural","WSC",-96.357946,33.1617108,"Anderson County,TX",31.7819242,-95.6258199,"Rural"
"Nueces County WCID #3","PO Box 1147 Robstown TX","Nueces","Groundwater","WCID#1",-97.668884,27.7903032,"Nueces County,TX",27.7153774,-97.6199942,"Groundwater"
"Nueces County WCID #4","1812 State Highway 361 Suite F Port Aransas TX","Nueces","Energy","WCID",-97.073837,27.8193625,"Nueces County,TX",27.7153774,-97.6199942,"Energy"
"Nueces WSC","2302 E Sage Rd Kingsville TX","Nueces","Rural","WSC",-97.84712,27.5387322,"Nueces County,TX",27.7153774,-97.6199942,"Rural"
"O & B WSC","8950 FM 935 Troy TX","Bell","Energy","WSC",-97.280051,31.1954463,"Bell County,TX",31.0081659,-97.4314413,"Energy"
"Oak Forest WSC","PO Box 1493 Buda TX","Hays","Groundwater","WSC",-97.842893,30.0817231,"Hays County,TX",30.0447901,-98.0393127,"Groundwater"
"Oak Grove Texas WSC","6004 Ellis Ln Kaufman TX","Kaufman","Groundwater","WSC",-96.318661,32.5330368,"Kaufman County,TX",32.601641,-96.3375126,"Groundwater"
"Oak Grove WSC","904 W Front St DeKalb TX","Bowie","Rural","WSC",-94.631253,33.5149664,"Bowie County,TX",33.4198886,-94.4479626,"Rural"
"Oak Hills WSC","6646 U S 181 Floresville TX","Wilson","Energy","WSC",-98.241316,29.2268973,"Wilson County,TX",29.1589961,-98.1251465,"Energy"
"Oak Ridge - South Gale WSC","PO Box 1263 Denison TX","Grayson","Rural","WSC",-96.536658,33.7556593,"Grayson County,TX",33.5636114,-96.6702111,"Rural"
"Oakwood Water System","8799 Charlya Dr Athens TX","Henderson","Groundwater","N/A",-95.741069,32.1992321,"Henderson County,TX",32.182598,-95.7893178,"Groundwater"
"Olaska WSC","PO Box 2463 Olaska TX","Polk","Energy","WSC",-95.103304,30.814491,"Polk County,TX",30.7642828,-94.8192175,"Energy"
"Old Marbach School WSC","PO Box 268 George West TX","Live Oak","Policy","WSC",-98.116396,28.3331379,"Live Oak County,TX",28.2678746,-98.101923,"Policy"
"Old Tami WSC","PO Box 7402 The Woodlands TX","Montgomery","Flood","WSC",-95.461263,30.1658207,"Montgomery County,TX",30.301949,-95.5065944,"Flood"
"Olden WSC","PO Box 61 Olden TX","Eastland","Energy","WSC",-98.750894,32.4190198,"Eastland County,TX",32.2978594,-98.8630896,"Energy"
"Olmito Water Supply Corporation","101 Clara Bennett Drive Olmito TX","Cameron","Flood","Company",-97.530669,26.0261475,"Cameron County,TX",26.1291189,-97.4134281,"Flood"
"One-Five-O WSC","100 FM 2693 Road W New Waverly TX","San Jacinto","Flood","WSC",-95.284628,30.5494263,"San Jacinto County,TX",30.5083577,-95.1902362,"Flood"
"Orange County WCID #1","460 E Bolivar St Vidor TX","Orange","Energy","WCID",-94.009014,30.1285767,"Orange County,TX",30.1228634,-93.9041169,"Energy"
"Orange County WCID #2","PO Box 278 Orange TX","Orange","Rural","WCID#1",-93.736555,30.0929879,"Orange County,TX",30.1228634,-93.9041169,"Rural"
"Orangefield WSC","PO Box 398 Orangefield TX","Orange","Policy","WSC",-93.864831,30.0756508,"Orange County,TX",30.1228634,-93.9041169,"Policy"
"Paint Creek WSC","PO Box 829 Stamford TX","Jones","Agriculture","WSC",-99.802871,32.9453874,"Jones County,TX",32.7135946,-99.8606106,"Agriculture"
"Palo Pinto WSC","PO Box 157 Palo Pinto TX","Palo Pinto","Energy","WSC",-98.298754,32.7679859,"Palo Pinto County,TX",32.7215726,-98.2814881,"Energy"
"Parker County SUD","500 Brock Spur Millsap TX","Parker","Energy","SUD",-97.953774,32.6967008,"Parker County,TX",32.7599475,-97.7935767,"Energy"
"Parker WSC","7001 CR 1200 Cleburne TX","Johnson","Groundwater","WSC",-97.304177,32.2461035,"Johnson County,TX",32.3766071,-97.3568623,"Groundwater"
"Patrick WSC","245 Goldman Ln Waco TX","McLennan","Agriculture","WSC",-97.246386,31.684951,"McLennan County,TX",31.5487691,-97.2189254,"Agriculture"
"Patterson WSC","1508 Hwy 377 North Collinsville TX","Grayson","Policy","WSC",-96.912253,33.5716263,"Grayson County,TX",33.5636114,-96.6702111,"Policy"
"Pattison WSC","PO Box 63 Pattison TX","Waller","Policy","WSC",-95.994956,29.8252297,"Waller County,TX",29.9443902,-95.9955885,"Policy"
"Pattonville WSC","PO Box 1 Pattonville TX","Lamar","Flood","WSC",-95.392375,33.579608,"Lamar County,TX",33.6383552,-95.582343,"Flood"
"Payne Springs WSC","9690 State Hwy 198 Mabank TX","Henderson","Groundwater","WSC",-96.085524,32.2780814,"Henderson County,TX",32.182598,-95.7893178,"Groundwater"
"Pecos County Fresh Water","PO Box 10 Fort Stockton TX","Pecos","Flood","Water",-102.87846,30.887991,"Pecos County,TX",30.7857437,-102.8065415,"Flood"
"Pecos County WCID #1","P.O. Box 696 Fort Stockton TX","Pecos","Agriculture","WCID#1",-102.87846,30.887991,"Pecos County,TX",30.7857437,-102.8065415,"Agriculture"
"Pendleton WSC","Po Box 100 / 9675 Spur 1237 Pendleton TX","Bell","Agriculture","WSC",-97.349456,31.195442,"Bell County,TX",31.0081659,-97.4314413,"Agriculture"
"Penelope WSC","PO Box 102 Penelope TX","Hill","Energy","WSC",-96.926706,31.8594462,"Hill County,TX",31.9595085,-97.0881654,"Energy"
"Pennington WSC","PO Box 15 Pennington TX","Trinity","Energy","WSC",-95.235512,31.1876372,"Trinity County,TX",31.0834452,-95.1219348,"Energy"
"Pettus MUD","Box 153 Pettus TX","Bee","Agriculture","MUD",-97.802222,28.6180446,"Bee County,TX",28.3871179,-97.7191838,"Agriculture"
"Phelps SUD","455 FM 2296 Rd Huntsville TX","Walker","Rural","SUD",-95.450661,30.6659893,"Walker County,TX",30.6795741,-95.5522823,"Rural"
"Pickton WSC","P O Box 127 Pickton TX","Hopkins","Policy","WSC",-95.391787,33.0302707,"Hopkins County,TX",33.1368252,-95.5656578,"Policy"
"Picosa WSC","3274 FM 2579 Floresville TX","Wilson","Rural","WSC",-98.302957,29.148546,"Wilson County,TX",29.1589961,-98.1251465,"Rural"
"Pine Ridge WSC","149 W Main St Van TX","Smith","Policy","WSC",-95.63586,32.5246024,"Smith County,TX",32.3402898,-95.2563971,"Policy"
"Pink Hill WSC","PO Box 224 Bells TX","Grayson","Agriculture","WSC",-96.410819,33.6103837,"Grayson County,TX",33.5636114,-96.6702111,"Agriculture"
"Pixley Water Works, Inc.","1699 FM 2665 Goodrich TX","Polk","Rural","Inc.",-94.94138,30.6010371,"Polk County,TX",30.7642828,-94.8192175,"Rural"
"Pleasant Grove WSC","PO Box 695 Fairfield TX","Freestone","Flood","WSC",-96.165248,31.7246128,"Freestone County,TX",31.6924428,-96.1629601,"Flood"
"Poetry WSC","PO Box 392 Terrell TX","Kaufman","Rural","WSC",-96.279827,32.719805,"Kaufman County,TX",32.601641,-96.3375126,"Rural"
"Point Blank & Stephens Creek WSC","PO Box 121 Point Blank TX","San Jacinto","Rural","WSC",-95.218959,30.7477925,"San Jacinto County,TX",30.5083577,-95.1902362,"Rural"
"Point Enterprise WSC","PO Box 126 Mexia TX","Limestone","Policy","WSC",-96.482203,31.6798895,"Limestone County,TX",31.5261854,-96.580617,"Policy"
"Pollok-Redtown WSC","PO Box 10 Pollok TX","Angeli","Agriculture","WSC",-94.872156,31.4465701,"Angeli County,TX",30.034134,-95.73678,"Agriculture"
"Polonia WSC","PO Box 778 Lockhart TX","Caldwell","Policy","WSC",-97.67416,29.8837265,"Caldwell County,TX",29.8298971,-97.5959641,"Policy"
"Port Mansfield PUD","400 W Hidalgo Ave, Ste 200 Raymondville TX","Willacy","Groundwater","PUD",-97.785735,26.4826538,"Willacy County,TX",26.4553947,-97.5947484,"Groundwater"
"Possum Kingdom WSC","1170 Willow Rd Graford TX","Palo Pinto","Energy","WSC",-98.440207,32.9092931,"Palo Pinto County,TX",32.7215726,-98.2814881,"Energy"
"Post Oak SUD","PO Box 545 Hubbard TX","Hill","Groundwater","SUD",-96.797215,31.8484935,"Hill County,TX",31.9595085,-97.0881654,"Groundwater"
"Potosi WSC","734 FM 1750 Abilene TX","Taylor","Rural","WSC",-99.657399,32.328737,"Taylor County,TX",32.2793121,-99.8812612,"Rural"
"Poynor Community WSC","15728 Us Hwy 175E Poynor TX","Henderson","Policy","WSC",-95.597733,32.0739657,"Henderson County,TX",32.182598,-95.7893178,"Policy"
"Prairie Hill WSC","PO Box 100 Prairie Hill TX","Limestone","Groundwater","WSC",-96.789274,31.6553266,"Limestone County,TX",31.5261854,-96.580617,"Groundwater"
"Pritchett WSC","3670 State Hwy 155 S Gilmer TX","Upshur","Rural","WSC",-94.97862,32.6875154,"Upshur County,TX",32.7263725,-94.9286251,"Rural"
"Professiol General Magement Services Inc.","26550 Ranch Rd 12 Ste 1 Dripping Springs","Hays","Energy","N/A",-98.084456,30.1779363,"Hays County,TX",30.0447901,-98.0393127,"Energy"
"Pruitt Sand Flat WSC","PO Box 310 Grand Saline TX","Van Zandt","Flood","WSC",-95.709407,32.6734636,"Van Zandt County,TX",32.5375642,-95.8292165,"Flood"
"Pure WSC","PO Box 154414 Waco TX","McLennan","Flood","WSC",-97.170279,31.5278271,"McLennan County,TX",31.5487691,-97.2189254,"Flood"
"Quail Creek MUD","515 Chukar Dr Victoria TX","Victoria","Agriculture","MUD",-97.08577,28.7754268,"Victoria County,TX",28.8026443,-96.9766308,"Agriculture"
"Ramey WSC","PO Box 58 Mineola TX","Wood","Flood","WSC",-95.481455,32.6611297,"Wood County,TX",32.7577475,-95.3812941,"Flood"
"Ranch Hills WSC","927 Silver Springs Helotes TX","Bandera","Energy","WSC",-98.840439,29.6633788,"Bandera County,TX",29.7643475,-99.234526,"Energy"
"Randolph WSC","PO Box 24 Randolph TX","Fannin","Rural","WSC",-96.256669,33.4849647,"Fannin County,TX",33.5372542,-96.0902822,"Rural"
"Ratcliff WSC","PO Box 1386 Ratcliff TX","Houston","Flood","WSC",-95.137355,31.391483,"Houston County,TX",31.3378465,-95.390805,"Flood"
"Rayburn Country MUD","P O BOX 5309 Jasper TX","Jasper","Agriculture","MUD",-93.996881,30.920823,"Jasper County,TX",30.7485258,-94.000884,"Agriculture"
"Raywood WSC","PO Box 125 Raywood TX","Liberty","Agriculture","WSC",-94.672142,30.0418817,"Liberty County,TX",30.0856736,-94.7856262,"Agriculture"
"Real WSC","PO Box 426 Hunt TX","Real","Agriculture","WSC",-99.337976,30.0710434,"Real County,TX",29.7949383,-99.8280905,"Agriculture"
"Red Creek MUD","422 Red Creek Rd San Angelo TX","Tom Green","Flood","MUD",-100.43028,31.5447108,"Tom Green County,TX",31.3782559,-100.4133839,"Flood"
"Red River County WSC","1404 E Main St Clarksville TX","Red River","Flood","WSC",-95.038688,33.6120939,"Red River County,TX",33.571979,-95.0429674,"Flood"
"Red Rock WSC","PO Box 270103 Flower Mound TX","Denton","Policy","WSC",-97.063715,33.0367629,"Denton County,TX",33.1838787,-97.1413417,"Policy"
"Rehobeth WSC","PO Box 691 Carthage TX","Panola","Rural","WSC",-94.33742,32.1573841,"Panola County,TX",32.1367712,-94.3130073,"Rural"
"Reklaw WSC","P.O. Box 250 Reklaw TX","Cherokee","Groundwater","WSC",-94.987718,31.8626716,"Cherokee County,TX",31.8390826,-95.1791849,"Groundwater"
"Resort Country WSC","623 Resort Drive Livingston TX","Polk","Flood","WSC",-95.103568,30.71665,"Polk County,TX",30.7642828,-94.8192175,"Flood"
"Rice WSC","PO Box 137 Rice TX","Navarro","Agriculture","WSC",-96.497687,32.2444848,"Navarro County,TX",32.0279525,-96.4985456,"Agriculture"
"Richland SUD","Box 217 Richland Springs TX","San Saba","Policy","SUD",-98.945046,31.2696099,"San Saba County,TX",31.122268,-98.8397049,"Policy"
"Riderville WSC","PO Box 227 Carthage TX","Panola","Groundwater","WSC",-94.33742,32.1573841,"Panola County,TX",32.1367712,-94.3130073,"Groundwater"
"Rincon WSC","PO Box 7 Taft TX","San Patricio","Groundwater","WSC",-97.396463,27.9785903,"San Patricio County,TX",28.0003594,-97.5020440853272,"Groundwater"
"River Acres WSC","15602 Northwest Blvd, Ste H Robstown TX","Nueces","Policy","WSC",-97.672097,27.8599079,"Nueces County,TX",27.7153774,-97.6199942,"Policy"
"River Oaks WSC","PO Box 426 Bay City TX","Matagorda","Policy","WSC",-95.969402,28.9827565,"Matagorda County,TX",28.8879823,-96.0035095,"Policy"
"Riverbend Water Resources District","228 A Texas Ave New Boston TX","Bowie","Groundwater","N/A",-94.327109,33.4615809,"Bowie County,TX",33.4198886,-94.4479626,"Groundwater"
"Riverside SUD","PO Box 194 Riverside TX","Walker","Groundwater","SUD",-95.403552,30.8529664,"Walker County,TX",30.6795741,-95.5522823,"Groundwater"
"Robertson County WSC","P.O. Box 875 Franklin TX","Robertson","Energy","WSC",-96.485244,31.0260194,"Robertson County,TX",31.0339058,-96.5079742,"Energy"
"Rock Hill WSC","PO Box 673 Beckville TX","Panola","Rural","WSC",-94.456067,32.2424226,"Panola County,TX",32.1367712,-94.3130073,"Rural"
"Rock Island WSC","PO Box 144 Rock Island TX","Colorado","Groundwater","WSC",-96.57396,29.5309833,"Colorado County,TX",29.6099609,-96.5478826,"Groundwater"
"Rockett SUD","PO Box 40 Red Oak TX","Ellis","Flood","SUD",-96.8153,32.5332101,"Ellis County,TX",32.3347829,-96.7920233,"Flood"
"Rose Hill SUD","1377 CR 274 Terrell TX","Kaufman","Rural","SUD",-96.320211,32.672385,"Kaufman County,TX",32.601641,-96.3375126,"Rural"
"Ross WSC","PO Box 202 Ross TX","McLennan","Flood","WSC",-97.119713,31.7177865,"McLennan County,TX",31.5487691,-97.2189254,"Flood"
"RPM WSC","5765 State Hwy 64 Ben Wheeler TX","Van Zandt","Rural","WSC",-95.57145,32.3979235,"Van Zandt County,TX",32.5375642,-95.8292165,"Rural"
"Ruby Ranch WSC","PO Box 1585 Buda TX","Hays","Agriculture","WSC",-97.842893,30.0817231,"Hays County,TX",30.0447901,-98.0393127,"Agriculture"
"Rural Bardwell WSC","PO Box 26 Itasca TX","Ellis","Policy","WSC",-97.150007,32.1595947,"Ellis County,TX",32.3347829,-96.7920233,"Policy"
"Rusk Rural WSC","PO Box 606 Rusk TX","Cherokee","Agriculture","WSC",-95.151032,31.7947681,"Cherokee County,TX",31.8390826,-95.1791849,"Agriculture"
"Sabine River Authority of Texas","PO Box 579 Orange TX","Orange","Agriculture","RA",-93.736555,30.0929879,"Orange County,TX",30.1228634,-93.9041169,"Agriculture"
"Saint Paul WSC","10441 County Rd 2323 Sinton TX","San Patricio","Rural","WSC",-97.560944,28.0980281,"San Patricio County,TX",28.0003594,-97.5020440853272,"Rural"
"Salado WSC","410 Salado Plaza Dr Salado TX","Bell","Policy","WSC",-97.529653,30.9554995,"Bell County,TX",31.0081659,-97.4314413,"Policy"
"San Augustine Rural WSC","PO Box 182 San Augustine TX","San Augustine","Energy","WSC",-94.111968,31.5296413,"San Augustine County,TX",31.3970365,-94.1751389,"Energy"
"San Jacinto SUD","70 Church Ave Coldspring TX","San Jacinto","Agriculture","SUD",-95.129343,30.5932403,"San Jacinto County,TX",30.5083577,-95.1902362,"Agriculture"
"San Patricio Municipal Water District","PO Box 940 Ingleside TX","San Patricio","Agriculture","District",-97.211657,27.8778026,"San Patricio County,TX",28.0003594,-97.5020440853272,"Agriculture"
"Sand Flat WSC","14874 FM 14 Tyler TX","Smith","Rural","WSC",-95.279035,32.4814352,"Smith County,TX",32.3402898,-95.2563971,"Rural"
"Sand Hill WSC","13938 State Hwy 7 W Center TX","Shelby","Policy","WSC",-94.375205,31.669575,"Shelby County,TX",31.7716364,-94.1301652,"Policy"
"Santo SUD","PO Box 248 Santo TX","Palo Pinto","Groundwater","SUD",-98.215663,32.6028204,"Palo Pinto County,TX",32.7215726,-98.2814881,"Groundwater"
"Sardis Lone Elm WSC","1941 Bryson Lane Midlothian TX","Ellis","Rural","WSC",-96.908483,32.5037759,"Ellis County,TX",32.3347829,-96.7920233,"Rural"
"Seguro Water Co","PO Box 781248 San Antonio TX","Val Verde","Rural","Company",-98.406443,29.4043129,"Val Verde County,TX",29.9153286,-101.1284631,"Rural"
"Seis Lagos Utility District","2730 COUNTRY CLUB RD STE E1 Lucas TX","Collin","Rural","UD",-96.609221,33.1227252,"Collin County,TX",33.1609629,-96.6060984,"Rural"
"Selkirk WSC","PO Box 269 Wadsworth TX","Matagorda","Rural","WSC",-95.934442,28.8305096,"Matagorda County,TX",28.8879823,-96.0035095,"Rural"
"Seneca WSC","PO Box 27 Woodville TX","Tyler","Energy","WSC",-94.414879,30.7753454,"Tyler County,TX",30.7563939,-94.3984613,"Energy"
"sh-Forreston WSC","PO Box 58 Forreston TX","Ellis","Flood","WSC",-96.866195,32.257662,"Ellis County,TX",32.3347829,-96.7920233,"Flood"
"Shady Grove SUD","3516 FM 499 Greenville TX","Hunt","Flood","SUD",-96.046951,33.1351578,"Hunt County,TX",33.1161567,-96.0808922,"Flood"
"Shady Grove WSC #2","PO Box 264 Sulphur Springs TX","Hopkins","Flood","WSC",-95.6007,33.1397692,"Hopkins County,TX",33.1368252,-95.5656578,"Flood"
"Sharon WSC","6175 N State Hwy 37 Winnsboro TX","Wood","Agriculture","WSC",-95.305965,32.938949,"Wood County,TX",32.7577475,-95.3812941,"Agriculture"
"Sharyland WSC","PO Box 1868 Mission TX","Hidalgo","Energy","WSC",-98.325293,26.2159066,"Hidalgo County,TX",26.3530256,-98.216445,"Energy"
"Sheridan WSC","PO Box 206 Sheridan TX","Colorado","Agriculture","WSC",-96.674482,29.4940754,"Colorado County,TX",29.6099609,-96.5478826,"Agriculture"
"Shield Ranch Water System","16037 Hamilton Pool Road Austin","Travis","Groundwater","N/A",-98.007713,30.2959086,"Travis County,TX",30.2878569,-97.7561392,"Groundwater"
"Shiloh WSC","PO Box 165 Mexia TX","Limestone","Flood","WSC",-96.482203,31.6798895,"Limestone County,TX",31.5261854,-96.580617,"Flood"
"Shirley WSC","6684 FM 1567 W Sulphur Springs TX","Hopkins","Energy","WSC",-95.667079,33.020405,"Hopkins County,TX",33.1368252,-95.5656578,"Energy"
"Silver Creek Village WSC","205 Loma Vista Dr Burnet TX","Burnet","Agriculture","WSC",-98.409663,30.8613327,"Burnet County,TX",30.7763939,-98.1700016,"Agriculture"
"Skidmore WSC","423 E St Mary's Street / PO Box 290 Skidmore TX","Bee","Agriculture","WSC",-97.682515,28.2590388,"Bee County,TX",28.3871179,-97.7191838,"Agriculture"
"Skyline Ranch Estates WSC","PO Box 2287 Wimberley TX","Hays","Groundwater","WSC",-98.09862,29.9974362,"Hays County,TX",30.0447901,-98.0393127,"Groundwater"
"Slaughter Creek Acres WSC","10620 Creek View Dr Austin TX","Travis","Policy","WSC",-97.823644,30.1603939,"Travis County,TX",30.2878569,-97.7561392,"Policy"
"SLC WSC","245 Lcr 775 Groesbeck TX","Limestone","Rural","WSC",-96.382246,31.4273692,"Limestone County,TX",31.5261854,-96.580617,"Rural"
"Slocum WSC","5720 E State Hwy 294 Elkhart TX","Anderson","Policy","WSC",-95.46228,31.6307021,"Anderson County,TX",31.7819242,-95.6258199,"Policy"
"Somervell County Water District","PO Box 1386 Glen Rose TX","Somervell","Policy","Water District",-97.755306,32.2345872,"Somervell County,TX",32.2275813,-97.7724138,"Policy"
"South Bosque WSC","540 River Park Rd Mc Gregor TX","McLennan","Rural","WSC",-97.287606,31.4952927,"McLennan County,TX",31.5487691,-97.2189254,"Rural"
"South Cleveland WSC","PO Box 1811 Cleveland TX","Liberty","Policy","WSC",-95.073048,30.3414963,"Liberty County,TX",30.0856736,-94.7856262,"Policy"
"South Ellis County WSC","PO Box 348 Italy TX","Ellis","Groundwater","WSC",-96.884719,32.1840381,"Ellis County,TX",32.3347829,-96.7920233,"Groundwater"
"South Freestone County WSC","PO Box 208 Teague TX","Freestone","Energy","WSC",-96.283862,31.6271145,"Freestone County,TX",31.6924428,-96.1629601,"Energy"
"South Grayson SUD","209 B H Cooke Lane Van Alstyne TX","Grayson","Policy","SUD",-96.544394,33.4099445,"Grayson County,TX",33.5636114,-96.6702111,"Policy"
"South Kirbyville Rural WSC","PO Box 189 Call TX","Jasper","Energy","WSC",-93.874346,30.6124261,"Jasper County,TX",30.7485258,-94.000884,"Energy"
"South Murvaul WSC","147 County Road 194 Gary TX","Panola","Flood","WSC",-94.456941,32.0273056,"Panola County,TX",32.1367712,-94.3130073,"Flood"
"South Newton WSC","PO Box 659 Deweyville TX","Newton","Agriculture","WSC",-93.7435,30.2977058,"Newton County,TX",30.8118989,-93.740504,"Agriculture"
"South Rains SUD","PO Box 95 Emory TX","Rains","Policy","SUD",-95.765518,32.874566,"Rains County,TX",32.8685085,-95.7964017,"Policy"
"South Rusk County WSC","PO Box 38 Laneville TX","Rusk","Energy","WSC",-94.813825,31.9743339,"Rusk County,TX",31.7960064,-95.1502214,"Energy"
"South Sabine WSC","807 Fairdale Rd Hemphill TX","Sabine","Groundwater","WSC",-93.723134,31.201168,"Sabine County,TX",31.3325489,-93.8722218,"Groundwater"
"South Tawakoni WSC","PO Box 485 Wills Point TX","Van Zandt","Rural","WSC",-96.008302,32.7092955,"Van Zandt County,TX",32.5375642,-95.8292165,"Rural"
"Southeast WSC","PO Box 640 Centerville TX","Leon","Agriculture","WSC",-95.978292,31.2579584,"Leon County,TX",31.2715127,-95.9953382,"Agriculture"
"Southern Utilities Company","218 N Broadway Ave Tyler TX","Smith","Policy","Company",-95.301021,32.3525027,"Smith County,TX",32.3402898,-95.2563971,"Policy"
"Southwest Fannin SUD","8046 W State Hwy 56 Savoy TX","Fannin","Groundwater","SUD",-96.319554,33.5866521,"Fannin County,TX",33.5372542,-96.0902822,"Groundwater"
"Southwest Gardens Water System","4601 66th Street Lubbock TX","Lubbock","Agriculture","Water System",-101.91017,33.5338795,"Lubbock County,TX",33.5831241,-101.818598,"Agriculture"
"Southwest Milam WSC","PO Box 232 Rockdale TX","Milam","Policy","WSC",-97.001374,30.6554759,"Milam County,TX",30.7626867,-96.9981706,"Policy"
"Southwest Sandhills WSC","PO Box 1473 Mohans TX","Ward","Agriculture","WSC",-102.89265,31.5942991,"Ward County,TX",31.5007583,-103.0781186,"Agriculture"
"Spring Branch Indian Hills Estates WSC","PO Box 486 Spring Branch TX","Comal","Groundwater","WSC",-98.41215,29.9096461,"Comal County,TX",29.7979704,-98.2690787,"Groundwater"
"Spring Valley WSC","PO Box 20246 Waco TX","McLennan","Policy","WSC",-97.14667,31.549333,"McLennan County,TX",31.5487691,-97.2189254,"Policy"
"Springs Hill WSC","PO Box 29 Seguin TX","Guadalupe","Groundwater","WSC",-97.964727,29.5688411,"Guadalupe County,TX",29.6480061,-97.8279576,"Groundwater"
"SS WSC","PO Box 1000 La Vernia TX","Wilson","Rural","WSC",-98.128449,29.3495285,"Wilson County,TX",29.1589961,-98.1251465,"Rural"
"St Paul-Shiloh Timesville WSC","PO Box 320 Oakwood TX","Leon","Flood","WSC",-95.849126,31.584896,"Leon County,TX",31.2715127,-95.9953382,"Flood"
"Staff WSC","PO Box 421 Ranger TX","Eastland","Energy","WSC",-98.680921,32.4721338,"Eastland County,TX",32.2978594,-98.8630896,"Energy"
"Star Mountain WSC","PO Box 528 Wino TX","Smith","Flood","WSC",-95.167169,32.4895892,"Smith County,TX",32.3402898,-95.2563971,"Flood"
"Starr WSC","PO Box 1043 Denison TX","Grayson","Energy","WSC",-96.536658,33.7556593,"Grayson County,TX",33.5636114,-96.6702111,"Energy"
"Starrville WSC","11620 County Road 3100 Wino TX","Smith","Agriculture","WSC",-95.094251,32.4325368,"Smith County,TX",32.3402898,-95.2563971,"Agriculture"
"Starrville-Friendship WSC","PO Box 1482 Gladewater TX","Smith","Rural","WSC",-94.942717,32.5365333,"Smith County,TX",32.3402898,-95.2563971,"Rural"
"Steamboat Mountain WSC","PO Box 367 Tuscola TX","Taylor","Rural","WSC",-99.796754,32.2095776,"Taylor County,TX",32.2793121,-99.8812612,"Rural"
"Stephens Regiol SUD","PO Box 1621 Breckenridge TX","Stephens","Energy","SUD",-98.90229,32.7556768,"Stephens County,TX",32.6944793,-98.8200722,"Energy"
"Stonewall WCID","PO Box 419 Stonewall TX","Gillespie","Energy","WCID",-98.664477,30.2360359,"Gillespie County,TX",30.2954086,-98.9086643,"Energy"
"Stryker Lake WSC","PO Box 156 New Summerfield TX","Cherokee","Agriculture","WSC",-95.093832,31.9807226,"Cherokee County,TX",31.8390826,-95.1791849,"Agriculture"
"Study Butte WSC","PO Box 148 Terlingua TX","Brewster","Rural","WSC",-103.61602,29.321586,"Brewster County,TX",29.8462742,-103.2400734,"Rural"
"Sturdivant-Progress WSC","241 Village Bend Rd Mineral Wells TX","Palo Pinto","Agriculture","WSC",-98.108482,32.7337693,"Palo Pinto County,TX",32.7215726,-98.2814881,"Agriculture"
"Sulphur River Basin Authority","911 North Bishop street Wake Village TX","Bowie","Rural","N/A",-94.097337,33.4287347,"Bowie County,TX",33.4198886,-94.4479626,"Rural"
"SUN WSC","PO Box 217 Merkel TX","Taylor","Groundwater","WSC",-100.0109,32.4723013,"Taylor County,TX",32.2793121,-99.8812612,"Groundwater"
"Sunday Canyon WSC","10530 Mountain Trl Canyon TX","Randall","Flood","WSC",-101.71233,34.9629711,"Randall County,TX",34.9444713,-101.8850309,"Flood"
"Sunko WSC","5186 State Hwy 123 S Stockdale TX","Wilson","Policy","WSC",-97.94773,29.1627698,"Wilson County,TX",29.1589961,-98.1251465,"Policy"
"Swift WSC","7077 E SH 7 cogdoches TX","Nacogdoches","Energy","WSC",-94.506679,31.6165447,"Nacogdoches County,TX",31.5970503,-94.5927451,"Energy"
"Talley WSC","PO Box 1837 Marshall TX","Harrison","Energy","WSC",-94.366012,32.5411808,"Harrison County,TX",32.5233959,-94.3982158,"Energy"
"Tarkington SUD","19396 Hwy 321 Cleveland TX","Liberty","Agriculture","SUD",-94.973041,30.2709596,"Liberty County,TX",30.0856736,-94.7856262,"Agriculture"
"TBM Resident WSC","1 Sunset Bend New Braunfels TX","Comal","Energy","WSC",-98.19066,29.7211733,"Comal County,TX",29.7979704,-98.2690787,"Energy"
"Tempe WSC","PO Box 2174 Livingston TX","Polk","Policy","WSC",-94.93302,30.7110216,"Polk County,TX",30.7642828,-94.8192175,"Policy"
"Terrell County WCID #1","PO Box 569 Sanderson TX","Terrell","Energy","WCID",-102.39957,30.140675,"Terrell County,TX",30.1990738,-102.0974881,"Energy"
"Texins Lake Texoma Club","PO Box 1543 Pottsboro TX","Grayson","Agriculture","N/A",-96.66944,33.759271,"Grayson County,TX",33.5636114,-96.6702111,"Agriculture"
"Texline Municipal Water System","517 S Second St Texline TX","Dallam","Policy","Water System",-103.01671,36.373043,"Dallam County,TX",36.3127064,-102.616685,"Policy"
"Thalia WSC","PO Box 4 Crowell TX","Foard","Policy","WSC",-99.725397,33.9849277,"Foard County,TX",33.9502317,-99.7310158,"Policy"
"The Grove WSC","1903 Straws Mill Rd Gatesville TX","Coryell","Rural","WSC",-97.723293,31.3909214,"Coryell County,TX",31.3689333,-97.8184077,"Rural"
"The Oaks WSC","26058 Hazy Holw San Antonio TX","Bexar","Agriculture","WSC",-98.648092,29.6875923,"Bexar County,TX",29.4263987,-98.5104781,"Agriculture"
"Thompson Heights Water","PO Box 378 Denison TX","Grayson","Groundwater","N/A",-96.536658,33.7556593,"Grayson County,TX",33.5636114,-96.6702111,"Groundwater"
"Thompson Water Company, Inc.","PO Box 366 Fairfield TX","Freestone","Agriculture","Company",-96.165248,31.7246128,"Freestone County,TX",31.6924428,-96.1629601,"Agriculture"
"Three Oaks WSC","6907 FM 541 West Floresville TX","Wilson","Groundwater","WSC",-98.062962,29.0842163,"Wilson County,TX",29.1589961,-98.1251465,"Groundwater"
"TOE WSC","1361 VZ CR 2403 Canton TX","Van Zandt","Groundwater","WSC",-95.71658,32.4942971,"Van Zandt County,TX",32.5375642,-95.8292165,"Groundwater"
"Tom Green Co FWD #2","19575 3rd Street Christoval TX","Tom Green","Groundwater","FWD",-100.49632,31.1917575,"Tom Green County,TX",31.3782559,-100.4133839,"Groundwater"
"Tom Green County FWSD #3","11191 Northcross Ln San Angelo TX","Tom Green","Flood","FWSD",-100.63098,31.3192686,"Tom Green County,TX",31.3782559,-100.4133839,"Flood"
"Tonkawa WSC","601 Jim Bowie Spicewood TX","Travis","Rural","WSC",-98.094062,30.427034,"Travis County,TX",30.2878569,-97.7561392,"Rural"
"Topsey WSC","4371 FM 1113 Copperas Cove TX","Coryell","Flood","WSC",-97.983714,31.2166316,"Coryell County,TX",31.3689333,-97.8184077,"Flood"
"Town of Buckholts","PO Box 117 Buckholts TX","Milam","Rural","N/A",-97.124992,30.8729661,"Milam County,TX",30.7626867,-96.9981706,"Rural"
"Town of Buffalo Gap","PO Box 506 Buffalo Gap TX","Taylor","Policy","N/A",-99.830089,32.2792968,"Taylor County,TX",32.2793121,-99.8812612,"Policy"
"Town of Ponder","405 Shaffner St Ponder TX","Denton","Policy","N/A",-97.289081,33.1841102,"Denton County,TX",33.1838787,-97.1413417,"Policy"
"Town of Van Horn","PO Box 517 Van Horn TX","Culberson","Groundwater","N/A",-104.83077,31.0398558,"Culberson County,TX",31.4622625,-104.482834,"Groundwater"
"Travis County WCID #19","500 N Capital Of Texas Hwy Austin TX","Travis","Rural","WCID",-97.828297,30.3084016,"Travis County,TX",30.2878569,-97.7561392,"Rural"
"Tri Community WSC","PO Box 11 Fentress TX","Caldwell","Agriculture","WSC",-97.777255,29.7554805,"Caldwell County,TX",29.8298971,-97.5959641,"Agriculture"
"Tri County Point POA","14 CR 480 Palacios TX","Matagorda","Groundwater","POA",-96.389291,28.6958015,"Matagorda County,TX",28.8879823,-96.0035095,"Groundwater"
"Tri County SUD","PO Box 976 Marlin TX","Falls","Flood","SUD",-96.898044,31.3062874,"Falls County,TX",31.2320941,-96.9262126,"Flood"
"Tri SUD","300 W 16th St Mount Pleasant TX","Titus","Flood","SUD",-94.973602,33.1714398,"Titus County,TX",33.2040399,-94.9651725,"Flood"
"Trinity Rural WSC","PO Box 709 Trinity TX","Trinity","Rural","WSC",-95.373387,30.9463502,"Trinity County,TX",31.0834452,-95.1219348,"Rural"
"Trophy Club MUD #1","100 Municipal Drive Trophy Club TX","Denton","Agriculture","MUD",-97.188287,32.9970112,"Denton County,TX",33.1838787,-97.1413417,"Agriculture"
"Tryon Road SUD","360 Skinner Ln Longview TX","Gregg","Policy","SUD",-94.747259,32.6110633,"Gregg County,TX",32.4492408,-94.8532848,"Policy"
"Tucker WSC","PO Box 593 Elkhart TX","Anderson","Flood","WSC",-95.579398,31.6251747,"Anderson County,TX",31.7819242,-95.6258199,"Flood"
"Twin Creek WSC","PO Box 88 New Baden TX","Robertson","Flood","WSC",-96.429743,31.0513478,"Robertson County,TX",31.0339058,-96.5079742,"Flood"
"Two Way SUD","PO Box 919 / 1201 Sherman Dr Whitesboro TX","Grayson","Energy","SUD",-96.889789,33.6497791,"Grayson County,TX",33.5636114,-96.6702111,"Energy"
"Tyn WSC","PO Box 115 Tyn TX","Bee","Rural","WSC",-97.757498,28.1694525,"Bee County,TX",28.3871179,-97.7191838,"Rural"
"U&F WSC","720 Armadillo Ln Snyder TX","Scurry","Agriculture","WSC",-100.97293,32.732658,"Scurry County,TX",32.7225172,-100.9052015,"Agriculture"
"Union Grove WSC","11015 Union Grove Rd Gladewater TX","Upshur","Rural","WSC",-94.921483,32.571018,"Upshur County,TX",32.7263725,-94.9286251,"Rural"
"Upper Jasper County Water Authority","269 County Road 080 Jasper TX","Jasper","Groundwater","Water Authority",-93.895903,30.8211207,"Jasper County,TX",30.7485258,-94.000884,"Groundwater"
"Upper Leon River MWD","2250 Hwy 2861 Comanche TX","Comanche","Flood","MWD",-98.51762,31.9654976,"Comanche County,TX",31.9130171,-98.527388,"Flood"
"Utopia WSC","PO Box 414 Utopia TX","Uvalde","Policy","WSC",-99.526993,29.6152274,"Uvalde County,TX",29.300357,-99.7733181,"Policy"
"Valley MUD 2","100 Adkins St / PO Box 939 Rancho Viejo TX","Cameron","Flood","MUD",-97.556376,26.0395222,"Cameron County,TX",26.1291189,-97.4134281,"Flood"
"Valley WSC","PO Box 342 Spur TX","Dickens","Energy","WSC",-100.85569,33.4764767,"Dickens County,TX",33.6170056,-100.7614115,"Energy"
"varro Mills WSC","1160 FM 667 Purdon TX","Navarro","Flood","WSC",-96.685094,31.9602764,"Navarro County,TX",32.0279525,-96.4985456,"Flood"
"Vero Special Utility District","408 West FM 545 Suite 400 Blue Ridge TX","Collin","Policy","SUD",-96.405924,33.299162,"Collin County,TX",33.1609629,-96.6060984,"Policy"
